[
  {
    "No": 1,
    "name": "세종충남대학교병원",
    "type": "종합병원",
    "phone": "1800-3114",
    "code": 30099,
    "address": "세종특별자치시 보듬7로 20, 세종충남대학교병원 (도담동)",
    "latitude": 36.51979655,
    "longitude": 127.2582429165058
  },
  {
    "No": 2,
    "name": "의료법인 영제 의료재단 엔케이세종병원",
    "type": "종합병원",
    "phone": "044-850-7700",
    "code": 30130,
    "address": "세종특별자치시 한누리대로 161, 세종시 NK리움힐 상가 1~8층 (나성동)",
    "latitude": 36.4796357,
    "longitude": 127.2622727909242
  },
  {
    "No": 3,
    "name": "한마음효요양병원",
    "type": "요양병원",
    "phone": "044-863-7200",
    "code": 30016,
    "address": "세종특별자치시 조치원읍 금이로 53-11, (조치원읍)",
    "latitude": 36.6339354,
    "longitude": 127.2839837
  },
  {
    "No": 4,
    "name": "운주산성요양병원",
    "type": "요양병원",
    "phone": "044-1544-0240",
    "code": 30009,
    "address": "세종특별자치시 전동면 모산고개길 96-25, (전동면)",
    "latitude": 36.6694386,
    "longitude": 127.2272707
  },
  {
    "No": 5,
    "name": "의료법인 선은의료재단 중앙요양병원",
    "type": "요양병원",
    "phone": "044-865-0066",
    "code": 30016,
    "address": "세종특별자치시 조치원읍 섭골길 37, ()",
    "latitude": 36.61337625,
    "longitude": 127.2883608363355
  },
  {
    "No": 6,
    "name": "조치원노인전문병원",
    "type": "요양병원",
    "phone": "044-862-7607",
    "code": 30042,
    "address": "세종특별자치시  연서면 도신고복로 789-17, 789",
    "latitude": 36.5899169,
    "longitude": 127.2028112
  },
  {
    "No": 7,
    "name": "의료법인은혜의료재단 은혜기독병원",
    "type": "정신병원",
    "phone": "044-868-5004",
    "code": 30045,
    "address": "세종특별자치시 연서면 효교로 135-30, ()",
    "latitude": 36.5762659,
    "longitude": 127.2477944
  },
  {
    "No": 8,
    "name": "트리니움여성병원",
    "type": "병원",
    "phone": "044-270-0114",
    "code": 30147,
    "address": "세종특별자치시 한누리대로 1934, 메인타워 (반곡동)",
    "latitude": 36.4917054,
    "longitude": 127.3035579
  },
  {
    "No": 9,
    "name": "아름드리나무어린이병원",
    "type": "병원",
    "phone": "044-715-7200",
    "code": 30100,
    "address": "세종특별자치시 보듬3로 101, 5층 일부, 6-7층 (아름동)",
    "latitude": 36.5113085,
    "longitude": 127.2488778
  },
  {
    "No": 10,
    "name": "서울현병원",
    "type": "병원",
    "phone": "1600-5626",
    "code": 30128,
    "address": "세종특별자치시 나성북로 15, MVG 4-7층 (나성동)",
    "latitude": 36.48972235,
    "longitude": 127.2583912186527
  },
  {
    "No": 11,
    "name": "중앙의원",
    "type": "의원",
    "phone": "044-862-4408",
    "code": 30004,
    "address": "세종특별자치시 전의면 읍내길 20, (전의면)",
    "latitude": 36.6811017,
    "longitude": 127.2044882350974
  },
  {
    "No": 12,
    "name": "전의의원",
    "type": "의원",
    "phone": "044-863-2828",
    "code": 30004,
    "address": "세종특별자치시 전의면 읍내길 13, 13",
    "latitude": 36.68051945,
    "longitude": 127.2042127984352
  },
  {
    "No": 13,
    "name": "누가연합의원",
    "type": "의원",
    "phone": "044-863-0494",
    "code": 30004,
    "address": "세종특별자치시 전의면 읍내길 7, ()",
    "latitude": 36.6800082,
    "longitude": 127.204428223527
  },
  {
    "No": 14,
    "name": "서울연합의원",
    "type": "의원",
    "phone": "044-523-3375",
    "code": 30001,
    "address": "세종특별자치시 소정면 소정구길 164, 103,201호",
    "latitude": 36.7248193,
    "longitude": 127.1507438
  },
  {
    "No": 15,
    "name": "장현진정형외과의원",
    "type": "의원",
    "phone": "044-863-1150",
    "code": 30026,
    "address": "세종특별자치시 조치원읍 조치원로 62, 62",
    "latitude": 36.6031182,
    "longitude": 127.3047269
  },
  {
    "No": 16,
    "name": "김형기신경외과의원",
    "type": "의원",
    "phone": "044-868-7574",
    "code": 30024,
    "address": "세종특별자치시  조치원읍 새내로 132, (조치원읍)",
    "latitude": 36.60359415,
    "longitude": 127.29797717093
  },
  {
    "No": 17,
    "name": "유성연합의원",
    "type": "의원",
    "phone": "044-868-6617",
    "code": 30024,
    "address": "세종특별자치시 조치원읍 새내로 132, ()",
    "latitude": 36.60359415,
    "longitude": 127.29797717093
  },
  {
    "No": 18,
    "name": "하나의원",
    "type": "의원",
    "phone": "044-864-7612",
    "code": 30026,
    "address": "세종특별자치시 조치원읍 조치원로 42, 1층",
    "latitude": 36.6031182,
    "longitude": 127.3047269
  },
  {
    "No": 19,
    "name": "이내과의원",
    "type": "의원",
    "phone": "044-865-3571",
    "code": 30024,
    "address": "세종특별자치시 조치원읍 조치원로 31, 31",
    "latitude": 36.60180985,
    "longitude": 127.3000718946521
  },
  {
    "No": 20,
    "name": "장동석내과의원",
    "type": "의원",
    "phone": "044-868-8841",
    "code": 30024,
    "address": "세종특별자치시 조치원읍 새내로 122, 메가박스 3층 306,307,308,309,310,311,312호",
    "latitude": 36.6029443,
    "longitude": 127.2982011524623
  },
  {
    "No": 21,
    "name": "한사랑산부인과의원",
    "type": "의원",
    "phone": "044-867-8433",
    "code": 30024,
    "address": "세종특별자치시 조치원읍 새내로 122, (세종시네마 1동 301호, 302호, 303호, 304호,305호)",
    "latitude": 36.6029443,
    "longitude": 127.2982011524623
  },
  {
    "No": 22,
    "name": "홍은표외과의원",
    "type": "의원",
    "phone": "044-863-7502",
    "code": 30024,
    "address": "세종특별자치시 조치원읍 새내로 122, 메가박스 210~212호",
    "latitude": 36.6029443,
    "longitude": 127.2982011524623
  },
  {
    "No": 23,
    "name": "선비뇨기과의원",
    "type": "의원",
    "phone": "044-868-8866",
    "code": 30027,
    "address": "세종특별자치시 조치원읍 조치원6길 7",
    "latitude": 36.60119,
    "longitude": 127.2996
  },
  {
    "No": 24,
    "name": "문내과의원",
    "type": "의원",
    "phone": "044-867-6551",
    "code": 30027,
    "address": "세종특별자치시 조치원읍 조치원로 22, 22",
    "latitude": 36.6011326,
    "longitude": 127.2992027333628
  },
  {
    "No": 25,
    "name": "서울연합외과의원",
    "type": "의원",
    "phone": "044-865-3838",
    "code": 30027,
    "address": "세종특별자치시 조치원읍 조치원로 22, 3층",
    "latitude": 36.6011326,
    "longitude": 127.2992027333628
  },
  {
    "No": 26,
    "name": "성심외과의원",
    "type": "의원",
    "phone": "044-865-3616",
    "code": 30023,
    "address": "세종특별자치시 조치원읍 새내로 113, ()",
    "latitude": 36.6020967,
    "longitude": 127.2978263798059
  },
  {
    "No": 27,
    "name": "성모이비인후과의원",
    "type": "의원",
    "phone": "044-863-1803",
    "code": 30023,
    "address": "세종특별자치시 조치원읍 조치원로 7, 7",
    "latitude": 36.60150255000001,
    "longitude": 127.2976495953986
  },
  {
    "No": 28,
    "name": "하나로내과의원",
    "type": "의원",
    "phone": "044-862-5900",
    "code": 30027,
    "address": "세종특별자치시 조치원읍 새내로 102, 1,2층",
    "latitude": 36.6011135,
    "longitude": 127.2983968157447
  },
  {
    "No": 29,
    "name": "신화비뇨기과의원",
    "type": "의원",
    "phone": "044-865-9999",
    "code": 30023,
    "address": "세종특별자치시 조치원읍 조치원1길 6, 6",
    "latitude": 36.6014716,
    "longitude": 127.2975435220046
  },
  {
    "No": 30,
    "name": "김내과의원",
    "type": "의원",
    "phone": "044-862-3575",
    "code": 30027,
    "address": "세종특별자치시 조치원읍 새내로 98, 98",
    "latitude": 36.600606,
    "longitude": 127.2984931654618
  },
  {
    "No": 31,
    "name": "이안과의원",
    "type": "의원",
    "phone": "044-866-7863",
    "code": 30027,
    "address": "세종특별자치시 조치원읍 새내로 98, 98",
    "latitude": 36.600606,
    "longitude": 127.2984931654618
  },
  {
    "No": 32,
    "name": "백내과의원",
    "type": "의원",
    "phone": "044-862-3838",
    "code": 30028,
    "address": "세종특별자치시 조치원읍 조치원2길 5, 2~4층",
    "latitude": 36.60104095,
    "longitude": 127.2976446270395
  },
  {
    "No": 33,
    "name": "양규준산부인과의원",
    "type": "의원",
    "phone": "044-862-8811",
    "code": 30027,
    "address": "세종특별자치시 조치원읍 새내로 96, 96",
    "latitude": 36.6095573,
    "longitude": 127.2963123
  },
  {
    "No": 34,
    "name": "서울신통마취통증의학과의원",
    "type": "의원",
    "phone": "044-862-7582",
    "code": 30028,
    "address": "세종특별자치시 조치원읍 새내로 97, 3층",
    "latitude": 36.60043055,
    "longitude": 127.2980785
  },
  {
    "No": 35,
    "name": "서울아산내과의원",
    "type": "의원",
    "phone": "044-862-7559",
    "code": 30028,
    "address": "세종특별자치시 조치원읍 새내로 97, 2층, 7층",
    "latitude": 36.60043055,
    "longitude": 127.2980785
  },
  {
    "No": 36,
    "name": "성가정신건강의학과의원",
    "type": "의원",
    "phone": "044-867-5357",
    "code": 30028,
    "address": "세종특별자치시 조치원읍 새내로 97, 5층 1호",
    "latitude": 36.60043055,
    "longitude": 127.2980785
  },
  {
    "No": 37,
    "name": "성모안과의원",
    "type": "의원",
    "phone": "044-868-0021",
    "code": 30028,
    "address": "세종특별자치시 조치원읍 새내로 97, 601호",
    "latitude": 36.60043055,
    "longitude": 127.2980785
  },
  {
    "No": 38,
    "name": "정비뇨기과의원",
    "type": "의원",
    "phone": "044-867-5350",
    "code": 30028,
    "address": "세종특별자치시 조치원읍 새내로 97, 4층 402호",
    "latitude": 36.60043055,
    "longitude": 127.2980785
  },
  {
    "No": 39,
    "name": "정석이비인후과의원",
    "type": "의원",
    "phone": "044-715-7579",
    "code": 30028,
    "address": "세종특별자치시 조치원읍 새내로 97, 조치원메디컬센터 502호",
    "latitude": 36.60043055,
    "longitude": 127.2980785
  },
  {
    "No": 40,
    "name": "굿모닝가정의학과의원",
    "type": "의원",
    "phone": "044-868-7582",
    "code": 30028,
    "address": "세종특별자치시 조치원읍 으뜸길 208, 208",
    "latitude": 36.6008241,
    "longitude": 127.2970101
  },
  {
    "No": 41,
    "name": "김승환이비인후과의원",
    "type": "의원",
    "phone": "044-862-8575",
    "code": 30027,
    "address": "세종특별자치시 조치원읍 새내로 88-1, 88",
    "latitude": 36.6095573,
    "longitude": 127.2963123
  },
  {
    "No": 42,
    "name": "여러분소통내과의원",
    "type": "의원",
    "phone": "044-868-7588",
    "code": 30027,
    "address": "세종특별자치시 조치원읍 새내로 88-1, 3층",
    "latitude": 36.6095573,
    "longitude": 127.2963123
  },
  {
    "No": 43,
    "name": "제일신경과의원",
    "type": "의원",
    "phone": "044-862-8275",
    "code": 30027,
    "address": "세종특별자치시 조치원읍 새내로 88-1, 2층",
    "latitude": 36.6095573,
    "longitude": 127.2963123
  },
  {
    "No": 44,
    "name": "오케이마취통증의학과의원",
    "type": "의원",
    "phone": "044-867-7575",
    "code": 30027,
    "address": "세종특별자치시 조치원읍 새내8길 7, 3~4층",
    "latitude": 36.59946345,
    "longitude": 127.2988499542534
  },
  {
    "No": 45,
    "name": "고명철정형외과의원",
    "type": "의원",
    "phone": "044-865-3414",
    "code": 30028,
    "address": "세종특별자치시 조치원읍 새내로 77, 77",
    "latitude": 36.6095573,
    "longitude": 127.2963123
  },
  {
    "No": 46,
    "name": "이은경소아청소년과의원",
    "type": "의원",
    "phone": "044-868-3414",
    "code": 30028,
    "address": "세종특별자치시 조치원읍 새내로 77, ()",
    "latitude": 36.6095573,
    "longitude": 127.2963123
  },
  {
    "No": 47,
    "name": "연세신경외과의원",
    "type": "의원",
    "phone": "044-865-2116",
    "code": 30028,
    "address": "세종특별자치시 조치원읍 새내로 75, 75",
    "latitude": 36.6095573,
    "longitude": 127.2963123
  },
  {
    "No": 48,
    "name": "서울외과의원",
    "type": "의원",
    "phone": "044-863-4912",
    "code": 30027,
    "address": "세종특별자치시 조치원읍 새내로 68-1, 68",
    "latitude": 36.6095573,
    "longitude": 127.2963123
  },
  {
    "No": 49,
    "name": "중앙외과의원",
    "type": "의원",
    "phone": "044-867-0001",
    "code": 30027,
    "address": "세종특별자치시 조치원읍 새내4길 3, 3",
    "latitude": 36.5977794,
    "longitude": 127.3036773
  },
  {
    "No": 50,
    "name": "현대정형외과의원",
    "type": "의원",
    "phone": "044-862-5161",
    "code": 30028,
    "address": "세종특별자치시 조치원읍 새내로 63, 2층",
    "latitude": 36.6095573,
    "longitude": 127.2963123
  },
  {
    "No": 51,
    "name": "연세가정의학과의원",
    "type": "의원",
    "phone": "044-863-8275",
    "code": 30034,
    "address": "세종특별자치시 조치원읍 대첩로 17, 17",
    "latitude": 36.59535185,
    "longitude": 127.2941479286552
  },
  {
    "No": 52,
    "name": "다솜가정의학과의원",
    "type": "의원",
    "phone": "044-865-0075",
    "code": 30032,
    "address": "세종특별자치시 조치원읍 도원1로 16, (푸르지오 상가 208. 209호)",
    "latitude": 36.59273215,
    "longitude": 127.2910194793323
  },
  {
    "No": 53,
    "name": "웰가정의학과의원",
    "type": "의원",
    "phone": "044-868-7507",
    "code": 30031,
    "address": "세종특별자치시 조치원읍 도원2로 39, 3층",
    "latitude": 36.593342,
    "longitude": 127.2911245
  },
  {
    "No": 54,
    "name": "유경의원",
    "type": "의원",
    "phone": "044-275-2160",
    "code": 30075,
    "address": "세종특별자치시 부강면 부강2길 14, (부강면)",
    "latitude": 36.53015,
    "longitude": 127.3672
  },
  {
    "No": 55,
    "name": "부강제일의원",
    "type": "의원",
    "phone": "044-275-3330",
    "code": 30075,
    "address": "세종특별자치시 부강면 부강5길 11-1, ()",
    "latitude": 36.52862,
    "longitude": 127.3683
  },
  {
    "No": 56,
    "name": "한마음의원",
    "type": "의원",
    "phone": "044-277-6446",
    "code": 30075,
    "address": "세종특별자치시 부강면 부강4길 10, ()",
    "latitude": 36.529356,
    "longitude": 127.3679664
  },
  {
    "No": 57,
    "name": "부영의원",
    "type": "의원",
    "phone": "044-275-3782",
    "code": 30076,
    "address": "세종특별자치시 부강면 부강로 37-1, 1~2층",
    "latitude": 36.5286987,
    "longitude": 127.3664051
  },
  {
    "No": 58,
    "name": "삼성전기(주) 부속의원",
    "type": "의원",
    "phone": "044-861-1348",
    "code": 30067,
    "address": "세종특별자치시 연동면 삼성길 25, 4동 1층",
    "latitude": 36.54062,
    "longitude": 127.3329
  },
  {
    "No": 59,
    "name": "허브연합내과의원",
    "type": "의원",
    "phone": "044-715-7588",
    "code": 30092,
    "address": "세종특별자치시 해밀3로 51, 스카이허브 303,304호 (해밀동)",
    "latitude": 36.5290799,
    "longitude": 127.2650042502095
  },
  {
    "No": 60,
    "name": "세종수이비인후과의원",
    "type": "의원",
    "phone": "044-715-7730",
    "code": 30092,
    "address": "세종특별자치시 해밀3로 43, 스카이드림 501,502호 (해밀동)",
    "latitude": 36.52853145,
    "longitude": 127.264484780775
  },
  {
    "No": 61,
    "name": "세종스카이내과의원",
    "type": "의원",
    "phone": "044-715-7320",
    "code": 30092,
    "address": "세종특별자치시 해밀3로 43, 스카이드림 6층 602,603,604호 (해밀동)",
    "latitude": 36.52853145,
    "longitude": 127.264484780775
  },
  {
    "No": 62,
    "name": "윤빛소아청소년과의원",
    "type": "의원",
    "phone": "044-865-8124",
    "code": 30092,
    "address": "세종특별자치시 해밀3로 43, 스카이드림 303호 (해밀동)",
    "latitude": 36.52853145,
    "longitude": 127.264484780775
  },
  {
    "No": 63,
    "name": "세종바른연합의원",
    "type": "의원",
    "phone": "044-867-1110",
    "code": 30146,
    "address": "세종특별자치시 한누리대로 1820, 3층 305-1~2,306-1~2,307,308호 (반곡동)",
    "latitude": 36.4827528,
    "longitude": 127.2979671
  },
  {
    "No": 64,
    "name": "클레르피부과의원",
    "type": "의원",
    "phone": "044-715-5910",
    "code": 30146,
    "address": "세종특별자치시 한누리대로 1820, 왕관빌딩 401,402,403-1호 (반곡동)",
    "latitude": 36.4827528,
    "longitude": 127.2979671
  },
  {
    "No": 65,
    "name": "하늘소아청소년과의원",
    "type": "의원",
    "phone": "044-867-5151",
    "code": 30146,
    "address": "세종특별자치시 한누리대로 1820, 왕관빌딩 314-2,315,404,405-1호 (반곡동)",
    "latitude": 36.4827528,
    "longitude": 127.2979671
  },
  {
    "No": 66,
    "name": "세미이비인후과의원",
    "type": "의원",
    "phone": "044-715-7560",
    "code": 30146,
    "address": "세종특별자치시 한누리대로 1824, 3층 301~303,308호 (반곡동)",
    "latitude": 36.4827528,
    "longitude": 127.2979671
  },
  {
    "No": 67,
    "name": "세종예쁨의원",
    "type": "의원",
    "phone": "044-868-9921",
    "code": 30146,
    "address": "세종특별자치시  한누리대로 1824, 305, 306호 (반곡동)",
    "latitude": 36.4827528,
    "longitude": 127.2979671
  },
  {
    "No": 68,
    "name": "세종조은내과의원",
    "type": "의원",
    "phone": "044-715-7570",
    "code": 30146,
    "address": "세종특별자치시 한누리대로 1828, 시드니블루 401호,402호 (반곡동)",
    "latitude": 36.49808274999999,
    "longitude": 127.3115761442687
  },
  {
    "No": 69,
    "name": "위하는내과의원",
    "type": "의원",
    "phone": "044-715-5110",
    "code": 30146,
    "address": "세종특별자치시 한누리대로 1844, 행복드림타워 301~305호 (반곡동)",
    "latitude": 36.4827528,
    "longitude": 127.2979671
  },
  {
    "No": 70,
    "name": "김예진내과의원",
    "type": "의원",
    "phone": "044-862-8875",
    "code": 30098,
    "address": "세종특별자치시 한누리대로 589, 해피라움7 404,405,702-1,702-2호 (도담동)",
    "latitude": 36.4827528,
    "longitude": 127.2979671
  },
  {
    "No": 71,
    "name": "세종 정형외과의원",
    "type": "의원",
    "phone": "867-2191",
    "code": 30098,
    "address": "세종특별자치시 한누리대로 583, 도담센트럴프라자 501,502,506호 (도담동)",
    "latitude": 36.4827528,
    "longitude": 127.2979671
  },
  {
    "No": 72,
    "name": "세종쉼정신건강의학과의원",
    "type": "의원",
    "phone": "044-864-1181",
    "code": 30100,
    "address": "세종특별자치시 한누리대로 583, 503호 (도담동, 도담센트럴프라자)",
    "latitude": 36.4827528,
    "longitude": 127.2979671
  },
  {
    "No": 73,
    "name": "수앤미통증의학과의원",
    "type": "의원",
    "phone": "044-865-1174",
    "code": 30100,
    "address": "세종특별자치시 한누리대로 583, 도담센트럴프라자 4층 401,402호 (도담동)",
    "latitude": 36.4827528,
    "longitude": 127.2979671
  },
  {
    "No": 74,
    "name": "좋은하루이비인후과의원",
    "type": "의원",
    "phone": "044-998-7582",
    "code": 30098,
    "address": "세종특별자치시 보듬4로 9, 3층 6,7호 (도담동, 도램마을11단지)",
    "latitude": 36.5130387,
    "longitude": 127.2625266
  },
  {
    "No": 75,
    "name": "건강한가족의원",
    "type": "의원",
    "phone": "044-858-7555",
    "code": 30100,
    "address": "세종특별자치시 보듬3로 8-12, 101-2.102호 (도담동, 라온프라이빗시티1상가)",
    "latitude": 36.5115136,
    "longitude": 127.2540775
  },
  {
    "No": 76,
    "name": "세종365의원",
    "type": "의원",
    "phone": "1661-3561",
    "code": 30147,
    "address": "세종특별자치시 한누리대로 1958, 법조타운A 4층 401~410호 (소담동)",
    "latitude": 36.4827528,
    "longitude": 127.2979671
  },
  {
    "No": 77,
    "name": "도담도담소아청소년과의원",
    "type": "의원",
    "phone": "044-867-3211",
    "code": 30100,
    "address": "세종특별자치시 보듬3로 6, 212호 (도담동, 라온프라이빗시티2상가)",
    "latitude": 36.512805,
    "longitude": 127.2588921
  },
  {
    "No": 78,
    "name": "세종내과의원",
    "type": "의원",
    "phone": "044-868-1070",
    "code": 30100,
    "address": "세종특별자치시 보듬3로 6, 204.205호 (도담동, 라온프라이빗시티2상가)",
    "latitude": 36.512805,
    "longitude": 127.2588921
  },
  {
    "No": 79,
    "name": "굿제이산부인과의원",
    "type": "의원",
    "phone": "044-715-7677",
    "code": 30103,
    "address": "세종특별자치시 절재로 194, 중앙타운 303호 (어진동)",
    "latitude": 36.5085703,
    "longitude": 127.2614127
  },
  {
    "No": 80,
    "name": "동행정신건강의학과의원",
    "type": "의원",
    "phone": "044-867-7579",
    "code": 30103,
    "address": "세종특별자치시 절재로 194, 중앙타운 704호 (어진동)",
    "latitude": 36.5085703,
    "longitude": 127.2614127
  },
  {
    "No": 81,
    "name": "두리이비인후과의원",
    "type": "의원",
    "phone": "044-865-7577",
    "code": 30103,
    "address": "세종특별자치시 절재로 194, 중앙타운 801,802호 (어진동)",
    "latitude": 36.5085703,
    "longitude": 127.2614127
  },
  {
    "No": 82,
    "name": "백앤미의원",
    "type": "의원",
    "phone": "044-868-9617",
    "code": 30103,
    "address": "세종특별자치시 절재로 194, 510호 (어진동, 중앙타운)",
    "latitude": 36.5085703,
    "longitude": 127.2614127
  },
  {
    "No": 83,
    "name": "블랑피부과의원",
    "type": "의원",
    "phone": "044-905-1100",
    "code": 30103,
    "address": "세종특별자치시 절재로 194, 중앙타운 301호,302(일부)호 (어진동)",
    "latitude": 36.5085703,
    "longitude": 127.2614127
  },
  {
    "No": 84,
    "name": "서울아산재활의학과의원",
    "type": "의원",
    "phone": "044-715-7591",
    "code": 30103,
    "address": "세종특별자치시 절재로 194, 중앙타운 4층 406호 (어진동)",
    "latitude": 36.5085703,
    "longitude": 127.2614127
  },
  {
    "No": 85,
    "name": "스마트정신건강의학과의원",
    "type": "의원",
    "phone": "044-862-7392",
    "code": 30103,
    "address": "세종특별자치시 절재로 194, 504호 (어진동, 세종드림)",
    "latitude": 36.5085703,
    "longitude": 127.2614127
  },
  {
    "No": 86,
    "name": "아이닉안과의원",
    "type": "의원",
    "phone": "044-868-1288",
    "code": 30103,
    "address": "세종특별자치시 절재로 194, 403,404호 (어진동, 세종드림)",
    "latitude": 36.5085703,
    "longitude": 127.2614127
  },
  {
    "No": 87,
    "name": "위대한내과의원",
    "type": "의원",
    "phone": "044-865-3375",
    "code": 30103,
    "address": "세종특별자치시 절재로 194, 505호,506호 (어진동, 중앙타운)",
    "latitude": 36.5085703,
    "longitude": 127.2614127
  },
  {
    "No": 88,
    "name": "제일마취통증의학과의원",
    "type": "의원",
    "phone": "044-862-0008",
    "code": 30103,
    "address": "세종특별자치시 절재로 194, 604호 (어진동, 세종드림)",
    "latitude": 36.4827528,
    "longitude": 127.2979671
  },
  {
    "No": 89,
    "name": "연세정담정신건강의학과의원",
    "type": "의원",
    "phone": "044-866-3824",
    "code": 30102,
    "address": "세종특별자치시 한누리대로 499, 세종포스트빌딩 201-3,301호 (어진동)",
    "latitude": 36.5080745,
    "longitude": 127.2611599706632
  },
  {
    "No": 90,
    "name": "세종뷰티의원",
    "type": "의원",
    "phone": "044-863-0492",
    "code": 30103,
    "address": "세종특별자치시 한누리대로 492, 청암빌딩 405,406호 (어진동)",
    "latitude": 36.4827528,
    "longitude": 127.2979671
  },
  {
    "No": 91,
    "name": "세종서울정형외과의원",
    "type": "의원",
    "phone": "044-862-8833",
    "code": 30103,
    "address": "세종특별자치시 한누리대로 492, 청암빌딩 403,404,407호 (어진동)",
    "latitude": 36.4827528,
    "longitude": 127.2979671
  },
  {
    "No": 92,
    "name": "세종성모내과의원",
    "type": "의원",
    "phone": "044-905-0606",
    "code": 30103,
    "address": "세종특별자치시 한누리대로 492, 청암빌딩 401,402호 (어진동)",
    "latitude": 36.4827528,
    "longitude": 127.2979671
  },
  {
    "No": 93,
    "name": "킹세종 이비인후과의원",
    "type": "의원",
    "phone": "044-868-1443",
    "code": 30103,
    "address": "세종특별자치시 한누리대로 492, 청암빌딩 303,304호 (어진동)",
    "latitude": 36.4827528,
    "longitude": 127.2979671
  },
  {
    "No": 94,
    "name": "세종청사 부속의원",
    "type": "의원",
    "phone": "044-200-1560",
    "code": 30064,
    "address": "세종특별자치시 다솜2로 94, 5동 301호 (어진동, 정부세종청사)",
    "latitude": 36.505209,
    "longitude": 127.2657551
  },
  {
    "No": 95,
    "name": "코끼리소아청소년과의원",
    "type": "의원",
    "phone": "044-867-8867",
    "code": 30151,
    "address": "세종특별자치시 한누리대로 2012, 코끼리타워 401호,402호 (소담동)",
    "latitude": 36.485292,
    "longitude": 127.2998924524885
  },
  {
    "No": 96,
    "name": "무지개소아청소년과의원",
    "type": "의원",
    "phone": "044-862-0507",
    "code": 30150,
    "address": "세종특별자치시 소담1로 16, 406호 (소담동, 지엘플렉스2)",
    "latitude": 36.48461575,
    "longitude": 127.3011689568054
  },
  {
    "No": 97,
    "name": "매일연합의원",
    "type": "의원",
    "phone": "044-864-7975",
    "code": 30102,
    "address": "세종특별자치시 절재로 154, 1층 (어진동, 홈플러스 세종점)",
    "latitude": 36.50736904999999,
    "longitude": 127.2588282247777
  },
  {
    "No": 98,
    "name": "소담내과의원",
    "type": "의원",
    "phone": "044-863-4100",
    "code": 30151,
    "address": "세종특별자치시 한누리대로 2016, 302~309호 (소담동, 타임빌딩)",
    "latitude": 36.4850434,
    "longitude": 127.29967635
  },
  {
    "No": 99,
    "name": "소담튼튼소아청소년과의원",
    "type": "의원",
    "phone": "044-868-8276",
    "code": 30151,
    "address": "세종특별자치시 한누리대로 2016, 404호,405호 (소담동, 타임빌딩)",
    "latitude": 36.4850434,
    "longitude": 127.29967635
  },
  {
    "No": 100,
    "name": "정마취통증의학과의원",
    "type": "의원",
    "phone": "044-905-3300",
    "code": 30151,
    "address": "세종특별자치시 한누리대로 2016, 타임빌딩 401호,402호 (소담동)",
    "latitude": 36.4850434,
    "longitude": 127.29967635
  },
  {
    "No": 101,
    "name": "세종탑재활의학과의원",
    "type": "의원",
    "phone": "044-864-1620",
    "code": 30151,
    "address": "세종특별자치시 한누리대로 2018, 사이언스타운 501호, 506~508호호 (소담동)",
    "latitude": 36.484684,
    "longitude": 127.29959
  },
  {
    "No": 102,
    "name": "소망안과의원",
    "type": "의원",
    "phone": "044-868-8224",
    "code": 30151,
    "address": "세종특별자치시 한누리대로 2018, 사이언스타운 307,308호 (소담동)",
    "latitude": 36.484684,
    "longitude": 127.29959
  },
  {
    "No": 103,
    "name": "코알이비인후과의원",
    "type": "의원",
    "phone": "044-865-3650",
    "code": 30151,
    "address": "세종특별자치시 한누리대로 2018, 사이언스타운 4층 403~406호 (소담동)",
    "latitude": 36.484684,
    "longitude": 127.29959
  },
  {
    "No": 104,
    "name": "세움소아청소년과의원",
    "type": "의원",
    "phone": "044-862-6075",
    "code": 30100,
    "address": "세종특별자치시 보듬3로 92, 310호 (아름동, 해피라움2상가)",
    "latitude": 36.5115136,
    "longitude": 127.2540775
  },
  {
    "No": 105,
    "name": "세종제이피부과의원",
    "type": "의원",
    "phone": "044-865-1675",
    "code": 30100,
    "address": "세종특별자치시 보듬3로 92, 해피라움2 403,404,405호 (아름동)",
    "latitude": 36.5115136,
    "longitude": 127.2540775
  },
  {
    "No": 106,
    "name": "우리이비인후과의원",
    "type": "의원",
    "phone": "044-865-8575",
    "code": 30100,
    "address": "세종특별자치시 보듬3로 92, 409호 (아름동, 해피라움2상가)",
    "latitude": 36.5115136,
    "longitude": 127.2540775
  },
  {
    "No": 107,
    "name": "소담에스정형외과의원",
    "type": "의원",
    "phone": "044-867-8400",
    "code": 30151,
    "address": "세종특별자치시 한누리대로 2022, 아이콤스타타워 301,302,303,308호 (소담동)",
    "latitude": 36.48454479999999,
    "longitude": 127.2992428972032
  },
  {
    "No": 108,
    "name": "아름누리소아청소년과의원",
    "type": "의원",
    "phone": "044-865-7522",
    "code": 30151,
    "address": "세종특별자치시 한누리대로 2022, 아이콤스타타워 402,403호 (소담동)",
    "latitude": 36.48454479999999,
    "longitude": 127.2992428972032
  },
  {
    "No": 109,
    "name": "정부세종청사 중앙동 부속의원",
    "type": "의원",
    "phone": "044-200-3871",
    "code": 30112,
    "address": "세종특별자치시 도움6로 42, 정부세종청사 중앙동 2층 일부호 (어진동)",
    "latitude": 36.5030213,
    "longitude": 127.2665918
  },
  {
    "No": 110,
    "name": "세종시원마취통증의학과의원",
    "type": "의원",
    "phone": "044-867-7585",
    "code": 30100,
    "address": "세종특별자치시 보듬3로 100, 해피라움1 201~203호 (아름동)",
    "latitude": 36.51197165,
    "longitude": 127.2486843306488
  },
  {
    "No": 111,
    "name": "최훈내과의원",
    "type": "의원",
    "phone": "044-865-5575",
    "code": 30100,
    "address": "세종특별자치시 보듬3로 91, 303.304호 (아름동, 해피라움4)",
    "latitude": 36.5115136,
    "longitude": 127.2540775
  },
  {
    "No": 112,
    "name": "세종코아이비인후과의원",
    "type": "의원",
    "phone": "044-868-7585",
    "code": 30062,
    "address": "세종특별자치시 마음로 272-4, 고운메디프라자 201호 (고운동)",
    "latitude": 36.5021336,
    "longitude": 127.2409585
  },
  {
    "No": 113,
    "name": "세종속편한내과의원",
    "type": "의원",
    "phone": "044-862-1401",
    "code": 30100,
    "address": "세종특별자치시 보듬3로 95, 해피라움3 3층 301,302,304-2,305호 (아름동)",
    "latitude": 36.5115136,
    "longitude": 127.2540775
  },
  {
    "No": 114,
    "name": "웰키즈소아청소년과의원",
    "type": "의원",
    "phone": "044-868-4880",
    "code": 30100,
    "address": "세종특별자치시 보듬3로 95, 118,308,310,401~5,410,603~8,705호 (아름동)",
    "latitude": 36.5115136,
    "longitude": 127.2540775
  },
  {
    "No": 115,
    "name": "연세더아름의원",
    "type": "의원",
    "phone": "044-715-7911",
    "code": 30100,
    "address": "세종특별자치시 보듬3로 101, 2층 203,204,205호 (아름동)",
    "latitude": 36.5113085,
    "longitude": 127.2488778
  },
  {
    "No": 116,
    "name": "꿈담소아청소년과의원",
    "type": "의원",
    "phone": "044-715-7545",
    "code": 30062,
    "address": "세종특별자치시 마음로 264, 고운프라자 2층 201-1호 (고운동)",
    "latitude": 36.5021336,
    "longitude": 127.2409585
  },
  {
    "No": 117,
    "name": "메디캐치 정형외과의원",
    "type": "의원",
    "phone": "044-417-6273",
    "code": 30062,
    "address": "세종특별자치시  마음로 272-17, 세종 NS타워 3차 4층 (고운동)",
    "latitude": 36.5021336,
    "longitude": 127.2409585
  },
  {
    "No": 118,
    "name": "메디캐치의원",
    "type": "의원",
    "phone": "044-417-6271",
    "code": 30062,
    "address": "세종특별자치시  마음로 272-17, 세종NS타워 3차 3층 (고운동)",
    "latitude": 36.5021336,
    "longitude": 127.2409585
  },
  {
    "No": 119,
    "name": "서산부인과의원",
    "type": "의원",
    "phone": "044-905-3575",
    "code": 30100,
    "address": "세종특별자치시 보듬3로 150, 아름 행복타워 3,4층 (아름동)",
    "latitude": 36.5115136,
    "longitude": 127.2540775
  },
  {
    "No": 120,
    "name": "세종김안과의원",
    "type": "의원",
    "phone": "044-864-2360",
    "code": 30100,
    "address": "세종특별자치시 보듬3로 150, 아름 행복타워 5층 501,502,503호 (아름동)",
    "latitude": 36.5115136,
    "longitude": 127.2540775
  },
  {
    "No": 121,
    "name": "코끼리마취통증의학과의원",
    "type": "의원",
    "phone": "044-862-7505",
    "code": 30100,
    "address": "세종특별자치시 보듬3로 150, 아름 행복타워 502호 (아름동)",
    "latitude": 36.5115136,
    "longitude": 127.2540775
  },
  {
    "No": 122,
    "name": "나은정형외과의원",
    "type": "의원",
    "phone": "044-863-7579",
    "code": 30100,
    "address": "세종특별자치시 보듬3로 143, 502,503호 (아름동, 대영프라자)",
    "latitude": 36.5115136,
    "longitude": 127.2540775
  },
  {
    "No": 123,
    "name": "세종장사랑내과의원",
    "type": "의원",
    "phone": "044-715-7520",
    "code": 30100,
    "address": "세종특별자치시 보듬3로 158, 아름메디컬센터 4층 401~405호 (아름동)",
    "latitude": 36.5115136,
    "longitude": 127.2540775
  },
  {
    "No": 124,
    "name": "삼성밸런스이비인후과의원",
    "type": "의원",
    "phone": "044-715-7517",
    "code": 30100,
    "address": "세종특별자치시 아름서1길 13-12, 세종 제이디빌딩 201,202호 (아름동)",
    "latitude": 36.5107411,
    "longitude": 127.2428981
  },
  {
    "No": 125,
    "name": "핑크유외과의원",
    "type": "의원",
    "phone": "044-417-6688",
    "code": 30101,
    "address": "세종특별자치시 세종로 1229, 스타플레이스 4층 403,404호 (고운동)",
    "latitude": 36.5427724,
    "longitude": 127.2711886
  },
  {
    "No": 126,
    "name": "세종청사 제2부속의원",
    "type": "의원",
    "phone": "044-203-1400",
    "code": 30118,
    "address": "세종특별자치시 한누리대로 402, 산업통상자원부, 중앙토지수용위원회 13동 434호 (어진동)",
    "latitude": 36.4997455,
    "longitude": 127.2601498
  },
  {
    "No": 127,
    "name": "세종미즈산부인과의원",
    "type": "의원",
    "phone": "044-868-3582",
    "code": 30064,
    "address": "세종특별자치시 도움3로 105-5, 504호 (종촌동, 종촌중앙프라자)",
    "latitude": 36.5036098,
    "longitude": 127.2558571
  },
  {
    "No": 128,
    "name": "씨엘비뇨기과의원",
    "type": "의원",
    "phone": "044-865-0052",
    "code": 30064,
    "address": "세종특별자치시 도움3로 105-5, 603.604호 (종촌동, 종촌중앙프라자)",
    "latitude": 36.5036098,
    "longitude": 127.2558571
  },
  {
    "No": 129,
    "name": "유앤이내과의원",
    "type": "의원",
    "phone": "044-862-7511",
    "code": 30064,
    "address": "세종특별자치시 도움3로 105-5, 501.502.503.507호 (종촌동, 종촌중앙프라자)",
    "latitude": 36.5036098,
    "longitude": 127.2558571
  },
  {
    "No": 130,
    "name": "세종다사랑가정의학과의원",
    "type": "의원",
    "phone": "044-863-7523",
    "code": 30064,
    "address": "세종특별자치시 도움3로 105-7, 401호 (종촌동, 메디케어)",
    "latitude": 36.5036098,
    "longitude": 127.2558571
  },
  {
    "No": 131,
    "name": "세종맑은이비인후과의원",
    "type": "의원",
    "phone": "044-862-2358",
    "code": 30064,
    "address": "세종특별자치시 도움3로 105-7, 메디케어빌딩 301호 (종촌동)",
    "latitude": 36.5036098,
    "longitude": 127.2558571
  },
  {
    "No": 132,
    "name": "올마취통증의학과의원",
    "type": "의원",
    "phone": "044-863-0648",
    "code": 30064,
    "address": "세종특별자치시 도움3로 105-7, 403.404.405호 (종촌동, 메디케어)",
    "latitude": 36.5036098,
    "longitude": 127.2558571
  },
  {
    "No": 133,
    "name": "세종아이소아청소년과의원",
    "type": "의원",
    "phone": "044-864-0800",
    "code": 30064,
    "address": "세종특별자치시 달빛로 59, 303.304호 (종촌동, 호만빌딩)",
    "latitude": 36.5017286,
    "longitude": 127.2503313
  },
  {
    "No": 134,
    "name": "세종퍼스트피부과의원",
    "type": "의원",
    "phone": "044-864-9969",
    "code": 30064,
    "address": "세종특별자치시 달빛로 59, 호만빌딩 601~603호 (종촌동)",
    "latitude": 36.5017286,
    "longitude": 127.2503313
  },
  {
    "No": 135,
    "name": "곰돌이 소아청소년과의원",
    "type": "의원",
    "phone": "044-866-0275",
    "code": 30064,
    "address": "세종특별자치시 달빛로 47, 302호 (종촌동, 종촌파크프라자)",
    "latitude": 36.5017286,
    "longitude": 127.2503313
  },
  {
    "No": 136,
    "name": "맑은내과외과의원",
    "type": "의원",
    "phone": "044-863-6777",
    "code": 30064,
    "address": "세종특별자치시 달빛로 45, The Riverside 401~404, 503호 (종촌동)",
    "latitude": 36.5017286,
    "longitude": 127.2503313
  },
  {
    "No": 137,
    "name": "지에프정형외과의원",
    "type": "의원",
    "phone": "044-868-7506",
    "code": 30064,
    "address": "세종특별자치시 달빛로 43, 3층 (종촌동, 금강빌딩)",
    "latitude": 36.5017286,
    "longitude": 127.2503313
  },
  {
    "No": 138,
    "name": "서울삼성안과의원",
    "type": "의원",
    "phone": "044-862-0014",
    "code": 30064,
    "address": "세종특별자치시 도움1로 106, 메가시티 403,404,414호 (종촌동)",
    "latitude": 36.50265045,
    "longitude": 127.2479698505372
  },
  {
    "No": 139,
    "name": "세종가톨릭정형외과의원",
    "type": "의원",
    "phone": "044-867-7171",
    "code": 30064,
    "address": "세종특별자치시 도움1로 106, 401~402호,405~408호,416호 (종촌동, 메가시티)",
    "latitude": 36.50265045,
    "longitude": 127.2479698505372
  },
  {
    "No": 140,
    "name": "세종숲정신건강의학과의원",
    "type": "의원",
    "phone": "044-865-7560",
    "code": 30064,
    "address": "세종특별자치시 도움1로 106, 메가시티 3층 301호 (종촌동)",
    "latitude": 36.50265045,
    "longitude": 127.2479698505372
  },
  {
    "No": 141,
    "name": "웰에스테의원",
    "type": "의원",
    "phone": "044-863-8271",
    "code": 30064,
    "address": "세종특별자치시 도움1로 106, 메가시티 409호 (종촌동)",
    "latitude": 36.50265045,
    "longitude": 127.2479698505372
  },
  {
    "No": 142,
    "name": "종촌제일연합내과의원",
    "type": "의원",
    "phone": "044-715-7511",
    "code": 30064,
    "address": "세종특별자치시 도움1로 106, 메가시티 610,615-1호 (종촌동)",
    "latitude": 36.50265045,
    "longitude": 127.2479698505372
  },
  {
    "No": 143,
    "name": "한사랑의원",
    "type": "의원",
    "phone": "044-867-3569",
    "code": 30064,
    "address": "세종특별자치시 도움1로 106, 메가시티 501,505,506,507호 (종촌동)",
    "latitude": 36.50265045,
    "longitude": 127.2479698505372
  },
  {
    "No": 144,
    "name": "삼성미의원",
    "type": "의원",
    "phone": "044-868-7570",
    "code": 30064,
    "address": "세종특별자치시 도움1로 108, 몰리브(Mallive) 4층 405~406호 (종촌동)",
    "latitude": 36.5024157,
    "longitude": 127.2471534
  },
  {
    "No": 145,
    "name": "유소아청소년과의원",
    "type": "의원",
    "phone": "044-866-8025",
    "code": 30064,
    "address": "세종특별자치시 도움1로 108, 408.409호 (종촌동, 몰리브)",
    "latitude": 36.5024157,
    "longitude": 127.2471534
  },
  {
    "No": 146,
    "name": "세종성모소아청소년과의원",
    "type": "의원",
    "phone": "044-865-4003",
    "code": 30150,
    "address": "세종특별자치시 한누리대로 2129, 스타힐타워Ⅱ 401~405,409,412~415호 (보람동)",
    "latitude": 36.4785931,
    "longitude": 127.2897670381195
  },
  {
    "No": 147,
    "name": "더공감정신건강의학과의원",
    "type": "의원",
    "phone": "044-715-7678",
    "code": 30150,
    "address": "세종특별자치시 한누리대로 2135, 스타힐타워1 304호 (보람동)",
    "latitude": 36.4783404,
    "longitude": 127.2891532289831
  },
  {
    "No": 148,
    "name": "더블유세종어진건강의원",
    "type": "의원",
    "phone": "044-715-5262",
    "code": 30121,
    "address": "세종특별자치시 한누리대로 350, 뱅크빌딩 4층 401,405호 (어진동)",
    "latitude": 36.4827528,
    "longitude": 127.2979671
  },
  {
    "No": 149,
    "name": "세종고려정형외과의원",
    "type": "의원",
    "phone": "044-865-3888",
    "code": 30150,
    "address": "세종특별자치시 한누리대로 2143, 금강시티타워 303~306호 (보람동)",
    "latitude": 36.47806755,
    "longitude": 127.288434543927
  },
  {
    "No": 150,
    "name": "세종시청점오라클피부과의원",
    "type": "의원",
    "phone": "044-715-7716",
    "code": 30150,
    "address": "세종특별자치시 한누리대로 2143, 금강시티타워 204~206호 (보람동)",
    "latitude": 36.47806755,
    "longitude": 127.288434543927
  },
  {
    "No": 151,
    "name": "이도내과의원",
    "type": "의원",
    "phone": "044-905-2500",
    "code": 30150,
    "address": "세종특별자치시 한누리대로 2143, 금강시티타워 403~404호 (보람동)",
    "latitude": 36.47806755,
    "longitude": 127.288434543927
  },
  {
    "No": 152,
    "name": "고운소아청소년과의원",
    "type": "의원",
    "phone": "044-868-9545",
    "code": 30150,
    "address": "세종특별자치시 남세종로 454, 405호 (보람동, 강남제일타워)",
    "latitude": 36.47720815,
    "longitude": 127.289712
  },
  {
    "No": 153,
    "name": "우리연합의원",
    "type": "의원",
    "phone": "044-867-7803",
    "code": 30150,
    "address": "세종특별자치시 남세종로 454, 404호 (보람동, 강남제일타워)",
    "latitude": 36.47720815,
    "longitude": 127.289712
  },
  {
    "No": 154,
    "name": "센텀비뇨기과의원",
    "type": "의원",
    "phone": "044-867-6553",
    "code": 30150,
    "address": "세종특별자치시 한누리대로 2149, 엔젤타워 404호~407호 (보람동)",
    "latitude": 36.4778127,
    "longitude": 127.287821092533
  },
  {
    "No": 155,
    "name": "드림이비인후과의원",
    "type": "의원",
    "phone": "044-865-1275",
    "code": 30150,
    "address": "세종특별자치시 남세종로 458, 아리랑빌딩 201,202호 (보람동)",
    "latitude": 36.47701404999999,
    "longitude": 127.28925865
  },
  {
    "No": 156,
    "name": "세종이지항외과의원",
    "type": "의원",
    "phone": "044-863-6131",
    "code": 30123,
    "address": "세종특별자치시 한누리대로 331, 3층 320~323호 (나성동, SR파크센텀)",
    "latitude": 36.493933,
    "longitude": 127.2558373966887
  },
  {
    "No": 157,
    "name": "노블클라쎄산부인과의원",
    "type": "의원",
    "phone": "044-866-3575",
    "code": 30150,
    "address": "세종특별자치시 한누리대로 2165, 호려울마을7단지 근린생활시설 752동 A302~308-1, A315~A320호 (보람동)",
    "latitude": 36.4827528,
    "longitude": 127.2979671
  },
  {
    "No": 158,
    "name": "우리메디컬의원",
    "type": "의원",
    "phone": "044-868-5375",
    "code": 30063,
    "address": "세종특별자치시 고운서길 19, 세종 스마트큐브Ⅰ 301~303,305~308호 (고운동)",
    "latitude": 36.5050328,
    "longitude": 127.234761
  },
  {
    "No": 159,
    "name": "봄봄이비인후과의원",
    "type": "의원",
    "phone": "044-715-5915",
    "code": 30063,
    "address": "세종특별자치시 마음로 78, 세종 스마트큐브Ⅱ 203,204호 (고운동)",
    "latitude": 36.5021336,
    "longitude": 127.2409585
  },
  {
    "No": 160,
    "name": "365열린연합의원",
    "type": "의원",
    "phone": "044-864-7757",
    "code": 30063,
    "address": "세종특별자치시 마음로 74, 302.303호 (고운동, 그랜드프라자)",
    "latitude": 36.5021336,
    "longitude": 127.2409585
  },
  {
    "No": 161,
    "name": "고운맘소아청소년과의원",
    "type": "의원",
    "phone": "044-862-5252",
    "code": 30063,
    "address": "세종특별자치시 마음로 70, 304호 (고운동, 에셀프라자)",
    "latitude": 36.5021336,
    "longitude": 127.2409585
  },
  {
    "No": 162,
    "name": "참좋은서울아산내과의원",
    "type": "의원",
    "phone": "044-866-5900",
    "code": 30123,
    "address": "세종특별자치시 다정중앙로 58, 다정메디프라자 5층 502~505호 (다정동)",
    "latitude": 36.4957331,
    "longitude": 127.249169
  },
  {
    "No": 163,
    "name": "브이유의원",
    "type": "의원",
    "phone": "044-866-6222",
    "code": 30128,
    "address": "세종특별자치시  나성북로 21, 센트럴타워 506호 (나성동)",
    "latitude": 36.4898237,
    "longitude": 127.2589323881925
  },
  {
    "No": 164,
    "name": "다정내과의원",
    "type": "의원",
    "phone": "044-864-1911",
    "code": 30124,
    "address": "세종특별자치시 다정중앙로 57, 다정센타프라자 306,307호 (다정동)",
    "latitude": 36.499529,
    "longitude": 127.2493393
  },
  {
    "No": 165,
    "name": "도란도란소아청소년과의원",
    "type": "의원",
    "phone": "044-863-3275",
    "code": 30124,
    "address": "세종특별자치시 다정중앙로 57, 다정센타프라자 303호 (다정동)",
    "latitude": 36.499529,
    "longitude": 127.2493393
  },
  {
    "No": 166,
    "name": "리더본재활의학과의원",
    "type": "의원",
    "phone": "044-865-0700",
    "code": 30128,
    "address": "세종특별자치시 나성북로 30, 퍼스트원 6층 648호~655호 (나성동)",
    "latitude": 36.4901699,
    "longitude": 127.2628923
  },
  {
    "No": 167,
    "name": "세종스노우의원",
    "type": "의원",
    "phone": "044-903-3090",
    "code": 30128,
    "address": "세종특별자치시 나성북로 30, 퍼스트원 550~562호 (나성동)",
    "latitude": 36.4901699,
    "longitude": 127.2628923
  },
  {
    "No": 168,
    "name": "손근형소아청소년과의원",
    "type": "의원",
    "phone": "044-715-5975",
    "code": 30128,
    "address": "세종특별자치시 나성북로 30, 퍼스트원 5층 563,564,565호 (나성동)",
    "latitude": 36.4901699,
    "longitude": 127.2628923
  },
  {
    "No": 169,
    "name": "연세나무 정신건강의학과의원",
    "type": "의원",
    "phone": "044-865-5272",
    "code": 30128,
    "address": "세종특별자치시 나성북로 30, 퍼스트원 5층 547,548,549,533호 (나성동)",
    "latitude": 36.4901699,
    "longitude": 127.2628923
  },
  {
    "No": 170,
    "name": "다정서문365정형외과의원",
    "type": "의원",
    "phone": "044-865-1039",
    "code": 30123,
    "address": "세종특별자치시 다정중앙로 52, 페스티발2 605~614호 (다정동)",
    "latitude": 36.4951448,
    "longitude": 127.249118
  },
  {
    "No": 171,
    "name": "로뎀소아청소년과의원",
    "type": "의원",
    "phone": "044-863-0033",
    "code": 30123,
    "address": "세종특별자치시 다정중앙로 52, 페스티발2 402~404호 (다정동)",
    "latitude": 36.4951448,
    "longitude": 127.249118
  },
  {
    "No": 172,
    "name": "세종우리의원",
    "type": "의원",
    "phone": "044-867-1170",
    "code": 30123,
    "address": "세종특별자치시 다정중앙로 52, 페스티발2 510,511,512,513호 (다정동)",
    "latitude": 36.4951448,
    "longitude": 127.249118
  },
  {
    "No": 173,
    "name": "시원이비인후과의원",
    "type": "의원",
    "phone": "044-865-2340",
    "code": 30123,
    "address": "세종특별자치시  다정중앙로 52, 페스티발2 507~509호 (다정동)",
    "latitude": 36.4951448,
    "longitude": 127.249118
  },
  {
    "No": 174,
    "name": "세종국민건강의원",
    "type": "의원",
    "phone": "1522-3466",
    "code": 30123,
    "address": "세종특별자치시 가온로 8, 혜원빌딩 2~3층 (다정동)",
    "latitude": 36.4917398,
    "longitude": 127.2542162
  },
  {
    "No": 175,
    "name": "라비에피부과의원",
    "type": "의원",
    "phone": "044-864-5005",
    "code": 30124,
    "address": "세종특별자치시 다정중앙로 51, 더다정빌딩 501,502,503호 (다정동)",
    "latitude": 36.499529,
    "longitude": 127.2493393
  },
  {
    "No": 176,
    "name": "크리미의원",
    "type": "의원",
    "phone": "044-715-7750",
    "code": 30123,
    "address": "세종특별자치시 다정중앙로 46, 2층 (다정동)",
    "latitude": 36.499529,
    "longitude": 127.2493393
  },
  {
    "No": 177,
    "name": "서울아산신경외과의원",
    "type": "의원",
    "phone": "044-868-5288",
    "code": 30128,
    "address": "세종특별자치시 나성북로 9, 701,702호 (나성동, 메가타워1)",
    "latitude": 36.48962195,
    "longitude": 127.2578532874701
  },
  {
    "No": 178,
    "name": "서울뷰의원세종점",
    "type": "의원",
    "phone": "044-715-5199",
    "code": 30128,
    "address": "세종특별자치시 나성로 96, 더센트럴 519호 (나성동)",
    "latitude": 36.4912613,
    "longitude": 127.2592172
  },
  {
    "No": 179,
    "name": "서울어반내과의원",
    "type": "의원",
    "phone": "044-272-3800",
    "code": 30128,
    "address": "세종특별자치시 나성로 96, 더센트럴 5층 520~526호 (나성동)",
    "latitude": 36.4912613,
    "longitude": 127.2592172
  },
  {
    "No": 180,
    "name": "소리숨이비인후과의원",
    "type": "의원",
    "phone": "044-868-1177",
    "code": 30128,
    "address": "세종특별자치시 나성로 96, 더센트럴 421호 (나성동)",
    "latitude": 36.4912613,
    "longitude": 127.2592172
  },
  {
    "No": 181,
    "name": "열린이비인후과의원",
    "type": "의원",
    "phone": "044-867-7550",
    "code": 30124,
    "address": "세종특별자치시 다정중앙로 45, 다정프라자 304호~305호 (다정동)",
    "latitude": 36.499529,
    "longitude": 127.2493393
  },
  {
    "No": 182,
    "name": "다정소아청소년과의원",
    "type": "의원",
    "phone": "044-998-7711",
    "code": 30124,
    "address": "세종특별자치시 다정북로 109, 204,205호 (다정동, 가온마을3단지)",
    "latitude": 36.4964277,
    "longitude": 127.2423938
  },
  {
    "No": 183,
    "name": "마음현정신건강의학과의원",
    "type": "의원",
    "phone": "044-862-3217",
    "code": 30127,
    "address": "세종특별자치시 한누리대로 275, 형성프라자 6층 606,607호 (나성동)",
    "latitude": 36.48880674999999,
    "longitude": 127.2563853978388
  },
  {
    "No": 184,
    "name": "블리비의원",
    "type": "의원",
    "phone": "1833-7390",
    "code": 30127,
    "address": "세종특별자치시 한누리대로 275, 형성프라자 301호~303호 (나성동)",
    "latitude": 36.48880674999999,
    "longitude": 127.2563853978388
  },
  {
    "No": 185,
    "name": "서울삼성이비인후과의원",
    "type": "의원",
    "phone": "044-864-1864",
    "code": 30127,
    "address": "세종특별자치시 한누리대로 275, 형성프라자 401~404호 (나성동)",
    "latitude": 36.48880674999999,
    "longitude": 127.2563853978388
  },
  {
    "No": 186,
    "name": "송창헌내과의원",
    "type": "의원",
    "phone": "044-866-0966",
    "code": 30127,
    "address": "세종특별자치시 한누리대로 275, 형성프라자 405,406,407호 (나성동)",
    "latitude": 36.48880674999999,
    "longitude": 127.2563853978388
  },
  {
    "No": 187,
    "name": "윤정형외과의원",
    "type": "의원",
    "phone": "044-862-2827",
    "code": 30063,
    "address": "세종특별자치시 만남로3길 7, 지하1층 2~3층 (고운동)",
    "latitude": 36.5015359,
    "longitude": 127.2349999
  },
  {
    "No": 188,
    "name": "비쥬얼피부과의원",
    "type": "의원",
    "phone": "044-715-7585",
    "code": 30127,
    "address": "세종특별자치시 한누리대로 273, 새롬씨티 3층 302,303,304호 (나성동)",
    "latitude": 36.48850520000001,
    "longitude": 127.2564794440782
  },
  {
    "No": 189,
    "name": "세종연합비뇨기과의원",
    "type": "의원",
    "phone": "044-867-2800",
    "code": 30127,
    "address": "세종특별자치시 한누리대로 273, 새롬씨티 403,404,407,408호 (나성동)",
    "latitude": 36.48850520000001,
    "longitude": 127.2564794440782
  },
  {
    "No": 190,
    "name": "세종우리성모안과의원",
    "type": "의원",
    "phone": "044-864-3370",
    "code": 30127,
    "address": "세종특별자치시 한누리대로 273, 601~604호 (나성동)",
    "latitude": 36.48850520000001,
    "longitude": 127.2564794440782
  },
  {
    "No": 191,
    "name": "연세미니성형외과의원",
    "type": "의원",
    "phone": "044-867-3655",
    "code": 30127,
    "address": "세종특별자치시 한누리대로 273, 새롬씨티 502호, 503호 (나성동)",
    "latitude": 36.48850520000001,
    "longitude": 127.2564794440782
  },
  {
    "No": 192,
    "name": "이안정신건강의학과의원",
    "type": "의원",
    "phone": "044-999-1102",
    "code": 30127,
    "address": "세종특별자치시 한누리대로 273, 307호,402호,606~607호,706~707호호 (나성동)",
    "latitude": 36.48850520000001,
    "longitude": 127.2564794440782
  },
  {
    "No": 193,
    "name": "동행의원한의원",
    "type": "의원",
    "phone": "044-868-9935",
    "code": 30127,
    "address": "세종특별자치시 한누리대로 265, 명동프라자 601,602,603일부호 (나성동)",
    "latitude": 36.48783305,
    "longitude": 127.2567505
  },
  {
    "No": 194,
    "name": "마인드랩공간정신건강의학과의원",
    "type": "의원",
    "phone": "044-715-5670",
    "code": 30127,
    "address": "세종특별자치시 한누리대로 265, 명동프라자 406~407호 (나성동)",
    "latitude": 36.48783305,
    "longitude": 127.2567505
  },
  {
    "No": 195,
    "name": "삼성필성형외과의원",
    "type": "의원",
    "phone": "044-867-1233",
    "code": 30127,
    "address": "세종특별자치시 한누리대로 265, 명동프라자 3층 (나성동)",
    "latitude": 36.48783305,
    "longitude": 127.2567505
  },
  {
    "No": 196,
    "name": "서울봄빛안과의원",
    "type": "의원",
    "phone": "044-865-1400",
    "code": 30127,
    "address": "세종특별자치시 한누리대로 265, 명동프라자 603~607호 (나성동)",
    "latitude": 36.48783305,
    "longitude": 127.2567505
  },
  {
    "No": 197,
    "name": "세종노블에스의원",
    "type": "의원",
    "phone": "044-864-8610",
    "code": 30127,
    "address": "세종특별자치시 한누리대로 265, 명동프라자 403~405호 (나성동)",
    "latitude": 36.48783305,
    "longitude": 127.2567505
  },
  {
    "No": 198,
    "name": "세종위드정형외과의원",
    "type": "의원",
    "phone": "044-715-7574",
    "code": 30127,
    "address": "세종특별자치시 한누리대로 265, 명동프라자 7층 701,702,703호 (나성동)",
    "latitude": 36.48783305,
    "longitude": 127.2567505
  },
  {
    "No": 199,
    "name": "유웰비뇨의학과의원",
    "type": "의원",
    "phone": "1588-8163",
    "code": 30127,
    "address": "세종특별자치시 한누리대로 265, 명동프라자 502-504호 (나성동)",
    "latitude": 36.48783305,
    "longitude": 127.2567505
  },
  {
    "No": 200,
    "name": "미애로여성의원",
    "type": "의원",
    "phone": "044-863-7475",
    "code": 30127,
    "address": "세종특별자치시 한누리대로 253, 에스빌딩 603호,604호 (나성동)",
    "latitude": 36.4868387,
    "longitude": 127.257230161524
  },
  {
    "No": 201,
    "name": "삼성마음그린정신건강의학과의원",
    "type": "의원",
    "phone": "044-867-1000",
    "code": 30127,
    "address": "세종특별자치시 한누리대로 253, 에스빌딩 301호,505호 (나성동)",
    "latitude": 36.4868387,
    "longitude": 127.257230161524
  },
  {
    "No": 202,
    "name": "세종톡스앤필의원",
    "type": "의원",
    "phone": "044-414-9200",
    "code": 30127,
    "address": "세종특별자치시 한누리대로 253, 에스빌딩 501호 (나성동)",
    "latitude": 36.4868387,
    "longitude": 127.257230161524
  },
  {
    "No": 203,
    "name": "세종항도외과의원",
    "type": "의원",
    "phone": "044-867-4475",
    "code": 30127,
    "address": "세종특별자치시 한누리대로 253, 503호 (나성동, 에스빌딩)",
    "latitude": 36.4868387,
    "longitude": 127.257230161524
  },
  {
    "No": 204,
    "name": "잇츠미의원",
    "type": "의원",
    "phone": "044-867-1108",
    "code": 30127,
    "address": "세종특별자치시 한누리대로 253, 에스빌딩 302~304호 (나성동)",
    "latitude": 36.4868387,
    "longitude": 127.257230161524
  },
  {
    "No": 205,
    "name": "크로바내과의원",
    "type": "의원",
    "phone": "044-863-7975",
    "code": 30127,
    "address": "세종특별자치시 한누리대로 253, 606~607호 (나성동, 에스빌딩)",
    "latitude": 36.4868387,
    "longitude": 127.257230161524
  },
  {
    "No": 206,
    "name": "두미소신경과의원",
    "type": "의원",
    "phone": "044-867-6119",
    "code": 30127,
    "address": "세종특별자치시 한누리대로 249, 에스제이타워 408~410,507호 (나성동)",
    "latitude": 36.48645985,
    "longitude": 127.2574341542243
  },
  {
    "No": 207,
    "name": "화인마취통증의학과의원",
    "type": "의원",
    "phone": "044-715-5875",
    "code": 30127,
    "address": "세종특별자치시 한누리대로 249, 에스제이타워 508,509호 (나성동)",
    "latitude": 36.48645985,
    "longitude": 127.2574341542243
  },
  {
    "No": 208,
    "name": "더블유성형외과의원",
    "type": "의원",
    "phone": "044-863-6673",
    "code": 30127,
    "address": "세종특별자치시 한누리대로 245, 401호 (나성동, 에스알파크원)",
    "latitude": 36.4861209,
    "longitude": 127.257643444024
  },
  {
    "No": 209,
    "name": "오라클피부과의원",
    "type": "의원",
    "phone": "044-868-0075",
    "code": 30127,
    "address": "세종특별자치시 한누리대로 245, 404~405호 (나성동, 에스알파크원)",
    "latitude": 36.4861209,
    "longitude": 127.257643444024
  },
  {
    "No": 210,
    "name": "세종마취통증의학과의원",
    "type": "의원",
    "phone": "044-863-7582",
    "code": 30130,
    "address": "세종특별자치시 한누리대로 193, 402호 (나성동, 참미르빌딩)",
    "latitude": 36.48208195,
    "longitude": 127.2605353886061
  },
  {
    "No": 211,
    "name": "따뜻한 정신건강의학과의원",
    "type": "의원",
    "phone": "044-715-7507",
    "code": 30153,
    "address": "세종특별자치시 한누리대로 2257, 판타지타워 304호 (대평동)",
    "latitude": 36.4827528,
    "longitude": 127.2979671
  },
  {
    "No": 212,
    "name": "중앙연합의원",
    "type": "의원",
    "phone": "044-715-7475",
    "code": 30153,
    "address": "세종특별자치시 한누리대로 2257, 판타지타워 404, 405호 (대평동)",
    "latitude": 36.4827528,
    "longitude": 127.2979671
  },
  {
    "No": 213,
    "name": "라온소아청소년과의원",
    "type": "의원",
    "phone": "044-866-1350",
    "code": 30127,
    "address": "세종특별자치시 새롬중앙로 62-15, 해피라움W 303,304호 (새롬동)",
    "latitude": 36.48671375000001,
    "longitude": 127.2515247078649
  },
  {
    "No": 214,
    "name": "세종이안과의원",
    "type": "의원",
    "phone": "044-868-7228",
    "code": 30127,
    "address": "세종특별자치시 새롬중앙로 62-15, 해피라움W 403,404호 (새롬동)",
    "latitude": 36.48671375000001,
    "longitude": 127.2515247078649
  },
  {
    "No": 215,
    "name": "제일연합내과의원",
    "type": "의원",
    "phone": "044-715-5501",
    "code": 30127,
    "address": "세종특별자치시 새롬중앙로 62-15, 401호,402(일부)호 (새롬동, 해피라움W)",
    "latitude": 36.48671375000001,
    "longitude": 127.2515247078649
  },
  {
    "No": 216,
    "name": "세종드림연합의원",
    "type": "의원",
    "phone": "1577-4713",
    "code": 30152,
    "address": "세종특별자치시 한누리대로 2264, 3층 (대평동, 씨티오브드림)",
    "latitude": 36.47300315,
    "longitude": 127.2769025448234
  },
  {
    "No": 217,
    "name": "세종김연수피부과의원",
    "type": "의원",
    "phone": "044-866-7534",
    "code": 30127,
    "address": "세종특별자치시 새롬중앙로 64, 세종영광프라자 4층 402호 (새롬동)",
    "latitude": 36.4866335,
    "longitude": 127.251061135162
  },
  {
    "No": 218,
    "name": "힘내라신경외과의원",
    "type": "의원",
    "phone": "044-417-6881",
    "code": 30126,
    "address": "세종특별자치시 새롬중앙로 67, 503호,504호,505호,506호 (새롬동, 오렌지빌딩)",
    "latitude": 36.4868552,
    "longitude": 127.2501665
  },
  {
    "No": 219,
    "name": "세종제일산부인과의원",
    "type": "의원",
    "phone": "044-866-3582",
    "code": 30153,
    "address": "세종특별자치시 한누리대로 2265, 세종메디컬센터 5층, 6층(대평동)",
    "latitude": 36.4827528,
    "longitude": 127.2979671
  },
  {
    "No": 220,
    "name": "이유경내과의원",
    "type": "의원",
    "phone": "044-868-0261",
    "code": 30153,
    "address": "세종특별자치시 한누리대로 2265, 세종메디컬센터 3층 304~306호 (대평동)",
    "latitude": 36.4827528,
    "longitude": 127.2979671
  },
  {
    "No": 221,
    "name": "강남 더 뷰티 성형외과의원",
    "type": "의원",
    "phone": "044-864-8008",
    "code": 30130,
    "address": "세종특별자치시 한누리대로 169, 스타벅스 행복타워 303호,305호,308호 (나성동)",
    "latitude": 36.4802285,
    "longitude": 127.2618513040982
  },
  {
    "No": 222,
    "name": "세종바른유외과의원",
    "type": "의원",
    "phone": "044-998-7575",
    "code": 30130,
    "address": "세종특별자치시 한누리대로 169, 세종행복타워 503~505호 (나성동)",
    "latitude": 36.4802285,
    "longitude": 127.2618513040982
  },
  {
    "No": 223,
    "name": "이삭소아청소년과의원",
    "type": "의원",
    "phone": "044-865-8275",
    "code": 30130,
    "address": "세종특별자치시 한누리대로 169, 세종행복타워 301,307,401호 (나성동)",
    "latitude": 36.4802285,
    "longitude": 127.2618513040982
  },
  {
    "No": 224,
    "name": "세종프라우메디산부인과의원",
    "type": "의원",
    "phone": "044-716-1000",
    "code": 30130,
    "address": "세종특별자치시 한누리대로 165, (나성동, 세종메디피아6,7층)",
    "latitude": 36.47996105,
    "longitude": 127.2620420738605
  },
  {
    "No": 225,
    "name": "상쾌한이비인후과의원",
    "type": "의원",
    "phone": "044-862-7584",
    "code": 30126,
    "address": "세종특별자치시 새롬중앙로 59, 403호 (새롬동, 새롬빌딩)",
    "latitude": 36.4861545,
    "longitude": 127.2503188
  },
  {
    "No": 226,
    "name": "연세하트내과의원",
    "type": "의원",
    "phone": "044-715-7580",
    "code": 30126,
    "address": "세종특별자치시 새롬중앙로 59, 새롬빌딩 5층 502,503호 (새롬동)",
    "latitude": 36.4861545,
    "longitude": 127.2503188
  },
  {
    "No": 227,
    "name": "세종반석정형외과의원",
    "type": "의원",
    "phone": "044-863-7551",
    "code": 30130,
    "address": "세종특별자치시 한누리대로 157, 601-609호 (나성동, 금강프라자)",
    "latitude": 36.4793241,
    "longitude": 127.2625909582124
  },
  {
    "No": 228,
    "name": "세종소아청소년과의원",
    "type": "의원",
    "phone": "044-866-1275",
    "code": 30130,
    "address": "세종특별자치시 한누리대로 157, 405호 (나성동, 금강프라자)",
    "latitude": 36.4793241,
    "longitude": 127.2625909582124
  },
  {
    "No": 229,
    "name": "새롬정형외과의원",
    "type": "의원",
    "phone": "044-998-3369",
    "code": 30127,
    "address": "세종특별자치시 새롬중앙로 34, 415호,416호,417호 (새롬동, 크리스마스빌딩)",
    "latitude": 36.4846089,
    "longitude": 127.2525505105848
  },
  {
    "No": 230,
    "name": "드림내과의원",
    "type": "의원",
    "phone": "044-715-7582",
    "code": 30126,
    "address": "세종특별자치시 새롬중앙로 55, 401호,402호403호 (새롬동, 행운빌딩)",
    "latitude": 36.48580635,
    "longitude": 127.2504335420053
  },
  {
    "No": 231,
    "name": "서울굿닥터(새롬)의원",
    "type": "의원",
    "phone": "044-867-9933",
    "code": 30126,
    "address": "세종특별자치시 새롬중앙로 55, 3층 (새롬동, 행운빌딩)",
    "latitude": 36.48580635,
    "longitude": 127.2504335420053
  },
  {
    "No": 232,
    "name": "세종영상의학과의원",
    "type": "의원",
    "phone": "044-866-0009",
    "code": 30083,
    "address": "세종특별자치시 금남면 용포로 116, 3층",
    "latitude": 36.46887585,
    "longitude": 127.2811933022035
  },
  {
    "No": 233,
    "name": "세종연세소아청소년과의원",
    "type": "의원",
    "phone": "044-867-9393",
    "code": 30126,
    "address": "세종특별자치시 새롬중앙로 47, 402~403호 (새롬동, 세움빌딩)",
    "latitude": 36.48501705,
    "longitude": 127.2508150467048
  },
  {
    "No": 234,
    "name": "부부내과의원",
    "type": "의원",
    "phone": "044-866-0345",
    "code": 30083,
    "address": "세종특별자치시 금남면 용포로 113, 113",
    "latitude": 36.4670428,
    "longitude": 127.2805922
  },
  {
    "No": 235,
    "name": "에스지연합의원",
    "type": "의원",
    "phone": "044-864-9991",
    "code": 30153,
    "address": "세종특별자치시 갈매로 58, 황산프라자 5층 501~511호 (대평동)",
    "latitude": 36.4900277,
    "longitude": 127.2631608
  },
  {
    "No": 236,
    "name": "한사랑메디칼의원",
    "type": "의원",
    "phone": "044-866-7580",
    "code": 30130,
    "address": "세종특별자치시 누리로 106, 302호 (한솔동, 송원프라자)",
    "latitude": 36.47984035,
    "longitude": 127.2526252208743
  },
  {
    "No": 237,
    "name": "서울의원",
    "type": "의원",
    "phone": "044-866-7985",
    "code": 30083,
    "address": "세종특별자치시 금남면 용포로 53, (금남면)",
    "latitude": 36.4670428,
    "longitude": 127.2805922
  },
  {
    "No": 238,
    "name": "우리들의원",
    "type": "의원",
    "phone": "044-857-2345",
    "code": 30053,
    "address": "세종특별자치시 장군면 장척로 401, (장군면)",
    "latitude": 36.5001948,
    "longitude": 127.2160389
  },
  {
    "No": 239,
    "name": "서문365정형외과의원",
    "type": "의원",
    "phone": "044-868-1039",
    "code": 30153,
    "address": "세종특별자치시 한누리대로 2281, SM메디컬센터 3층 (대평동)",
    "latitude": 36.4827528,
    "longitude": 127.2979671
  },
  {
    "No": 240,
    "name": "아름튼튼정형외과의원",
    "type": "의원",
    "phone": "044-715-5375",
    "code": 30100,
    "address": "세종특별자치시 보듬3로 92, 해피라움2 3층 301,302,315호 (아름동)",
    "latitude": 36.5115136,
    "longitude": 127.2540775
  },
  {
    "No": 241,
    "name": "코난소아청소년과의원",
    "type": "의원",
    "phone": "044-715-7551",
    "code": 30141,
    "address": "세종특별자치시 남세종로 73, 1층 109,110호 (집현동)",
    "latitude": 36.488364,
    "longitude": 127.3232654
  },
  {
    "No": 242,
    "name": "전의부부치과의원",
    "type": "치과의원",
    "phone": "044-862-2280",
    "code": 30004,
    "address": "세종특별자치시 전의면 운주산로 1191-5, 2층",
    "latitude": 36.6884237,
    "longitude": 127.1617493
  },
  {
    "No": 243,
    "name": "세종치과의원",
    "type": "치과의원",
    "phone": "044-862-7035",
    "code": 30004,
    "address": "세종특별자치시 전의면 만세길 5, 2층",
    "latitude": 36.67907525,
    "longitude": 127.2039314073372
  },
  {
    "No": 244,
    "name": "박종석치과의원",
    "type": "치과의원",
    "phone": "044-862-4500",
    "code": 30026,
    "address": "세종특별자치시 조치원읍 장안로 1, ()",
    "latitude": 36.6015201,
    "longitude": 127.3014228571733
  },
  {
    "No": 245,
    "name": "윤치과의원",
    "type": "치과의원",
    "phone": "044-867-4112",
    "code": 30027,
    "address": "세종특별자치시 조치원읍 조치원로 38, 38",
    "latitude": 36.60150745,
    "longitude": 127.3010529
  },
  {
    "No": 246,
    "name": "송태영치과의원",
    "type": "치과의원",
    "phone": "044-865-2821",
    "code": 30024,
    "address": "세종특별자치시 조치원읍 조치원로 31-1, ()",
    "latitude": 36.60177665000001,
    "longitude": 127.3001880700574
  },
  {
    "No": 247,
    "name": "이종선치과의원",
    "type": "치과의원",
    "phone": "044-865-6352",
    "code": 30024,
    "address": "세종특별자치시 조치원읍 조치원로 31, 31",
    "latitude": 36.60180985,
    "longitude": 127.3000718946521
  },
  {
    "No": 248,
    "name": "최진웅치과의원",
    "type": "치과의원",
    "phone": "044-866-2835",
    "code": 0,
    "address": "세종특별자치시 조치원읍 새내로 122, (외 1필지 세종시네마 1동 204호)",
    "latitude": 36.6029443,
    "longitude": 127.2982011524623
  },
  {
    "No": 249,
    "name": "연세탑치과의원",
    "type": "치과의원",
    "phone": "044-863-2844",
    "code": 30027,
    "address": "세종특별자치시 조치원읍 조치원8길 6, 2층",
    "latitude": 36.6013615,
    "longitude": 127.3004628369103
  },
  {
    "No": 250,
    "name": "하얀치과의원",
    "type": "치과의원",
    "phone": "044-866-6200",
    "code": 30027,
    "address": "세종특별자치시 조치원읍 조치원로 30, 30",
    "latitude": 36.6013547,
    "longitude": 127.2999989
  },
  {
    "No": 251,
    "name": "김진용치과의원",
    "type": "치과의원",
    "phone": "044-866-9281",
    "code": 30027,
    "address": "세종특별자치시 조치원읍 조치원로 22, 22",
    "latitude": 36.6011326,
    "longitude": 127.2992027333628
  },
  {
    "No": 252,
    "name": "이병진치과의원",
    "type": "치과의원",
    "phone": "044-862-2812",
    "code": 30023,
    "address": "세종특별자치시 조치원읍 조치원로 7, 3층",
    "latitude": 36.60150255000001,
    "longitude": 127.2976495953986
  },
  {
    "No": 253,
    "name": "보성치과의원",
    "type": "치과의원",
    "phone": "044-865-8879",
    "code": 30028,
    "address": "세종특별자치시 조치원읍 조치원2길 5, 5",
    "latitude": 36.60104095,
    "longitude": 127.2976446270395
  },
  {
    "No": 254,
    "name": "이편한치과의원",
    "type": "치과의원",
    "phone": "044-864-2875",
    "code": 30028,
    "address": "세종특별자치시 조치원읍 새내로 97, 4층 1호",
    "latitude": 36.60043055,
    "longitude": 127.2980785
  },
  {
    "No": 255,
    "name": "다인치과의원",
    "type": "치과의원",
    "phone": "044-868-7527",
    "code": 30028,
    "address": "세종특별자치시 조치원읍 새내9길 3, 2,3층",
    "latitude": 36.6001976,
    "longitude": 127.2981536
  },
  {
    "No": 256,
    "name": "누가치과의원",
    "type": "치과의원",
    "phone": "044-862-7597",
    "code": 30027,
    "address": "세종특별자치시 조치원읍 새내로 88-1, 4층",
    "latitude": 36.6095573,
    "longitude": 127.2963123
  },
  {
    "No": 257,
    "name": "바른뿌리치과의원",
    "type": "치과의원",
    "phone": "044-868-2804",
    "code": 30027,
    "address": "세종특별자치시 조치원읍 새내8길 7, 2층",
    "latitude": 36.59946345,
    "longitude": 127.2988499542534
  },
  {
    "No": 258,
    "name": "서울치과의원",
    "type": "치과의원",
    "phone": "044-867-2875",
    "code": 30028,
    "address": "세종특별자치시 조치원읍 새내로 91, 1.2.3층",
    "latitude": 36.6000207,
    "longitude": 127.2981648
  },
  {
    "No": 259,
    "name": "문치과의원",
    "type": "치과의원",
    "phone": "044-862-2875",
    "code": 30031,
    "address": "세종특별자치시 조치원읍 대첩로 75, 75",
    "latitude": 36.5947343,
    "longitude": 127.2879671
  },
  {
    "No": 260,
    "name": "서울이사랑치과의원",
    "type": "치과의원",
    "phone": "044-864-2840",
    "code": 30038,
    "address": "세종특별자치시 조치원읍 세종로 2282, 3층 302,303호",
    "latitude": 36.5912002,
    "longitude": 127.2919469
  },
  {
    "No": 261,
    "name": "플러스치과의원",
    "type": "치과의원",
    "phone": "044-867-2870",
    "code": 30036,
    "address": "세종특별자치시 조치원읍 허만석로 60-1, (플러스타운 A동 201호)",
    "latitude": 36.58650525,
    "longitude": 127.2987714924338
  },
  {
    "No": 262,
    "name": "부부치과의원",
    "type": "치과의원",
    "phone": "044-868-2275",
    "code": 30031,
    "address": "세종특별자치시 조치원읍 도원2로 39, (2층)",
    "latitude": 36.593342,
    "longitude": 127.2911245
  },
  {
    "No": 263,
    "name": "부강부부치과의원",
    "type": "치과의원",
    "phone": "044-275-2855",
    "code": 30075,
    "address": "세종특별자치시 부강면 부촌길 39, 1층",
    "latitude": 36.5308111,
    "longitude": 127.3662219
  },
  {
    "No": 264,
    "name": "부강수플란트치과의원",
    "type": "치과의원",
    "phone": "044-275-5585",
    "code": 30075,
    "address": "세종특별자치시 부강면 부촌길 29, (부강면)",
    "latitude": 36.5308111,
    "longitude": 127.3662219
  },
  {
    "No": 265,
    "name": "이편한홍치과의원",
    "type": "치과의원",
    "phone": "044-862-2811",
    "code": 30047,
    "address": "세종특별자치시 연서면 봉암길 8, ()",
    "latitude": 36.5616364,
    "longitude": 127.2828152
  },
  {
    "No": 266,
    "name": "당신의치과의원",
    "type": "치과의원",
    "phone": "044-862-0028",
    "code": 30092,
    "address": "세종특별자치시 해밀3로 51, 스카이허브 404,405호 (해밀동)",
    "latitude": 36.5290799,
    "longitude": 127.2650042502095
  },
  {
    "No": 267,
    "name": "연세해밀치과의원",
    "type": "치과의원",
    "phone": "044-863-2879",
    "code": 30092,
    "address": "세종특별자치시 해밀3로 43, 스카이드림 504호 (해밀동)",
    "latitude": 36.52853145,
    "longitude": 127.264484780775
  },
  {
    "No": 268,
    "name": "유앤성부부치과의원",
    "type": "치과의원",
    "phone": "044-862-7522",
    "code": 30146,
    "address": "세종특별자치시 한누리대로 1820, 왕관빌딩 407~408호 (반곡동)",
    "latitude": 36.4827528,
    "longitude": 127.2979671
  },
  {
    "No": 269,
    "name": "세종튼튼치과의원",
    "type": "치과의원",
    "phone": "044-866-2007",
    "code": 30146,
    "address": "세종특별자치시 한누리대로 1824, 401,402호 (반곡동)",
    "latitude": 36.4827528,
    "longitude": 127.2979671
  },
  {
    "No": 270,
    "name": "세종하이치과의원",
    "type": "치과의원",
    "phone": "044-862-7700",
    "code": 30146,
    "address": "세종특별자치시 한누리대로 1828, 시드니블루 403호,404호호 (반곡동)",
    "latitude": 36.49808274999999,
    "longitude": 127.3115761442687
  },
  {
    "No": 271,
    "name": "바른명치과의원",
    "type": "치과의원",
    "phone": "044-864-2824",
    "code": 30098,
    "address": "세종특별자치시 한누리대로 583, 도담센트럴프라자 302,303,304,504,505호 (도담동)",
    "latitude": 36.4827528,
    "longitude": 127.2979671
  },
  {
    "No": 272,
    "name": "좋은하루 치과의원",
    "type": "치과의원",
    "phone": "044-998-7599",
    "code": 30098,
    "address": "세종특별자치시 보듬4로 9, 3층 8,9호 (도담동, 도램마을11단지)",
    "latitude": 36.5130387,
    "longitude": 127.2625266
  },
  {
    "No": 273,
    "name": "도담민들레치과의원",
    "type": "치과의원",
    "phone": "044-865-0102",
    "code": 30100,
    "address": "세종특별자치시 보듬3로 8-27, 403-1호 (도담동, 새한빌딩)",
    "latitude": 36.5115136,
    "longitude": 127.2540775
  },
  {
    "No": 274,
    "name": "덴탈365치과의원",
    "type": "치과의원",
    "phone": "1661-3275",
    "code": 30147,
    "address": "세종특별자치시 한누리대로 1958, 법조타운A 3층 301~310호 (소담동)",
    "latitude": 36.4827528,
    "longitude": 127.2979671
  },
  {
    "No": 275,
    "name": "누리마루치과의원",
    "type": "치과의원",
    "phone": "044-865-2275",
    "code": 30107,
    "address": "세종특별자치시 도움8로 81, A동 301호 (어진동)",
    "latitude": 36.5056225,
    "longitude": 127.2659903
  },
  {
    "No": 276,
    "name": "단국대학교 치과대학 세종치과병원",
    "type": "치과병원",
    "phone": "044-410-5000",
    "code": 30107,
    "address": "세종특별자치시 도움8로 87, (어진동, 단국빌딩)",
    "latitude": 36.5056225,
    "longitude": 127.2659903
  },
  {
    "No": 277,
    "name": "서울봄빛치과의원",
    "type": "치과의원",
    "phone": "044-867-1575",
    "code": 30103,
    "address": "세종특별자치시 절재로 194, 중앙타운 401,402,405호 (어진동)",
    "latitude": 36.5085703,
    "longitude": 127.2614127
  },
  {
    "No": 278,
    "name": "성원치과의원",
    "type": "치과의원",
    "phone": "044-868-6091",
    "code": 30103,
    "address": "세종특별자치시 절재로 194, 408.409호 (어진동, 세종드림)",
    "latitude": 36.5085703,
    "longitude": 127.2614127
  },
  {
    "No": 279,
    "name": "수치과의원",
    "type": "치과의원",
    "phone": "044-864-5369",
    "code": 30103,
    "address": "세종특별자치시 절재로 194, 508호 (어진동, 중앙타운)",
    "latitude": 36.5085703,
    "longitude": 127.2614127
  },
  {
    "No": 280,
    "name": "세종프라임치과의원",
    "type": "치과의원",
    "phone": "044-868-3522",
    "code": 30103,
    "address": "세종특별자치시 한누리대로 499, 402호 (어진동, 세종미디어프라자)",
    "latitude": 36.5080745,
    "longitude": 127.2611599706632
  },
  {
    "No": 281,
    "name": "세종꾸러기소아치과의원",
    "type": "치과의원",
    "phone": "044-417-6991",
    "code": 30151,
    "address": "세종특별자치시 한누리대로 2012, 코끼리타워 301,302,303호 (소담동)",
    "latitude": 36.485292,
    "longitude": 127.2998924524885
  },
  {
    "No": 282,
    "name": "김만주정성치과의원",
    "type": "치과의원",
    "phone": "044-865-2080",
    "code": 30150,
    "address": "세종특별자치시 소담1로 16, 지엘플렉스2 404호 (소담동)",
    "latitude": 36.48461575,
    "longitude": 127.3011689568054
  },
  {
    "No": 283,
    "name": "서울소담치과의원",
    "type": "치과의원",
    "phone": "044-865-2811",
    "code": 30151,
    "address": "세종특별자치시 한누리대로 2018, 304~305호 (소담동, 사이언스타운)",
    "latitude": 36.484684,
    "longitude": 127.29959
  },
  {
    "No": 284,
    "name": "세움치과의원",
    "type": "치과의원",
    "phone": "044-862-2755",
    "code": 30100,
    "address": "세종특별자치시 보듬3로 92, 310호 (아름동, 해피라움2상가)",
    "latitude": 36.5115136,
    "longitude": 127.2540775
  },
  {
    "No": 285,
    "name": "세종베스트치과의원",
    "type": "치과의원",
    "phone": "044-865-7528",
    "code": 30100,
    "address": "세종특별자치시 보듬3로 92, 407.408호 (아름동, 해피라움2상가)",
    "latitude": 36.5115136,
    "longitude": 127.2540775
  },
  {
    "No": 286,
    "name": "아름치과의원",
    "type": "치과의원",
    "phone": "044-863-2833",
    "code": 30100,
    "address": "세종특별자치시 보듬3로 92, 206.207호 (아름동, 해피라움2상가)",
    "latitude": 36.5115136,
    "longitude": 127.2540775
  },
  {
    "No": 287,
    "name": "더브라운치과의원",
    "type": "치과의원",
    "phone": "044-865-2929",
    "code": 30062,
    "address": "세종특별자치시 마음로 272-3, 고운에듀프라자 303,304호 (고운동)",
    "latitude": 36.5021336,
    "longitude": 127.2409585
  },
  {
    "No": 288,
    "name": "연세감동치과의원",
    "type": "치과의원",
    "phone": "044-868-7522",
    "code": 30151,
    "address": "세종특별자치시 한누리대로 2022, 404호,405호 (소담동, 아크레타 아이콤스타타워)",
    "latitude": 36.48454479999999,
    "longitude": 127.2992428972032
  },
  {
    "No": 289,
    "name": "연세럭스치과의원",
    "type": "치과의원",
    "phone": "044-864-2804",
    "code": 30100,
    "address": "세종특별자치시 보듬3로 100, 해피라움1 204,205호 (아름동)",
    "latitude": 36.51197165,
    "longitude": 127.2486843306488
  },
  {
    "No": 290,
    "name": "세종어린이치과의원",
    "type": "치과의원",
    "phone": "044-865-7502",
    "code": 30100,
    "address": "세종특별자치시 보듬3로 91, 305호 (아름동, 해피라움4상가)",
    "latitude": 36.5115136,
    "longitude": 127.2540775
  },
  {
    "No": 291,
    "name": "강남세종치과의원",
    "type": "치과의원",
    "phone": "044-864-8111",
    "code": 30062,
    "address": "세종특별자치시 마음로 264, 고운프라자 2층 205호 (고운동)",
    "latitude": 36.5021336,
    "longitude": 127.2409585
  },
  {
    "No": 292,
    "name": "참좋아치과의원",
    "type": "치과의원",
    "phone": "044-864-8575",
    "code": 30100,
    "address": "세종특별자치시 보듬3로 143, 304,305,306호 (아름동, 대영프라자)",
    "latitude": 36.5115136,
    "longitude": 127.2540775
  },
  {
    "No": 293,
    "name": "더플랜트치과의원",
    "type": "치과의원",
    "phone": "044-998-2875",
    "code": 30100,
    "address": "세종특별자치시 아름서1길 13-12, 403,404호 (아름동, 제이디빌딩)",
    "latitude": 36.5107411,
    "longitude": 127.2428981
  },
  {
    "No": 294,
    "name": "서울굿모닝치과의원",
    "type": "치과의원",
    "phone": "044-865-2833",
    "code": 30064,
    "address": "세종특별자치시 도움3로 105-5, 505.506호 (종촌동, 종촌중앙프라자)",
    "latitude": 36.5036098,
    "longitude": 127.2558571
  },
  {
    "No": 295,
    "name": "우리치과의원",
    "type": "치과의원",
    "phone": "044-865-0231",
    "code": 30064,
    "address": "세종특별자치시 도움3로 105-5, 402.403호 (종촌동, 종촌중앙프라자)",
    "latitude": 36.5036098,
    "longitude": 127.2558571
  },
  {
    "No": 296,
    "name": "세종서울치과의원",
    "type": "치과의원",
    "phone": "044-863-7528",
    "code": 30064,
    "address": "세종특별자치시 도움3로 105-7, 501호 (종촌동, 메디케어빌딩)",
    "latitude": 36.5036098,
    "longitude": 127.2558571
  },
  {
    "No": 297,
    "name": "두치과의원",
    "type": "치과의원",
    "phone": "044-868-2877",
    "code": 30064,
    "address": "세종특별자치시 달빛로 59, 402.403.404호 (종촌동, 호만빌딩)",
    "latitude": 36.5017286,
    "longitude": 127.2503313
  },
  {
    "No": 298,
    "name": "맘애든치과의원",
    "type": "치과의원",
    "phone": "044-862-2874",
    "code": 30064,
    "address": "세종특별자치시 도움3로 105-8, 501.502호 (종촌동, 신목빌딩)",
    "latitude": 36.5036098,
    "longitude": 127.2558571
  },
  {
    "No": 299,
    "name": "패밀리치과의원",
    "type": "치과의원",
    "phone": "044-866-2804",
    "code": 30064,
    "address": "세종특별자치시 달빛로 47, 301호 (종촌동, 종촌파크프라자)",
    "latitude": 36.5017286,
    "longitude": 127.2503313
  },
  {
    "No": 300,
    "name": "삼성온가족치과의원",
    "type": "치과의원",
    "phone": "044-865-2843",
    "code": 30064,
    "address": "세종특별자치시 도움1로 106, 510호 (종촌동, 메가시티)",
    "latitude": 36.50265045,
    "longitude": 127.2479698505372
  },
  {
    "No": 301,
    "name": "화이트부부치과의원",
    "type": "치과의원",
    "phone": "044-865-2835",
    "code": 30064,
    "address": "세종특별자치시 도움1로 108, 410.411호 (종촌동, 몰리브)",
    "latitude": 36.5024157,
    "longitude": 127.2471534
  },
  {
    "No": 302,
    "name": "세종미소치과의원",
    "type": "치과의원",
    "phone": "044-864-4936",
    "code": 30150,
    "address": "세종특별자치시  한누리대로 2135, 302,303,301호 (보람동, 스타힐타워1) (보람동)",
    "latitude": 36.4783404,
    "longitude": 127.2891532289831
  },
  {
    "No": 303,
    "name": "메디컬뱅크치과의원",
    "type": "치과의원",
    "phone": "044-862-2873",
    "code": 30121,
    "address": "세종특별자치시 한누리대로 350, 뱅크빌딩 4층 2호 (어진동)",
    "latitude": 36.4827528,
    "longitude": 127.2979671
  },
  {
    "No": 304,
    "name": "세종드림치과의원",
    "type": "치과의원",
    "phone": "044-868-2815",
    "code": 30150,
    "address": "세종특별자치시 한누리대로 2143, 금강시티타워 405,406호 (보람동)",
    "latitude": 36.47806755,
    "longitude": 127.288434543927
  },
  {
    "No": 305,
    "name": "마음편한치과의원",
    "type": "치과의원",
    "phone": "044-867-2804",
    "code": 30150,
    "address": "세종특별자치시 남세종로 458, 아리랑빌딩 303호 (보람동)",
    "latitude": 36.47701404999999,
    "longitude": 127.28925865
  },
  {
    "No": 306,
    "name": "세종보람치과의원",
    "type": "치과의원",
    "phone": "044-863-7522",
    "code": 30150,
    "address": "세종특별자치시 남세종로 466, 403호 (보람동, 아평빌딩)",
    "latitude": 36.47665485,
    "longitude": 127.2884490548789
  },
  {
    "No": 307,
    "name": "스마일치과의원",
    "type": "치과의원",
    "phone": "044-863-8575",
    "code": 30063,
    "address": "세종특별자치시 마음로 74, 그랜드프라자 202,203호 (고운동)",
    "latitude": 36.5021336,
    "longitude": 127.2409585
  },
  {
    "No": 308,
    "name": "연세크리스마스치과의원",
    "type": "치과의원",
    "phone": "044-865-2075",
    "code": 30063,
    "address": "세종특별자치시 마음로 70, 302.303호 (고운동, 에셀프라자)",
    "latitude": 36.5021336,
    "longitude": 127.2409585
  },
  {
    "No": 309,
    "name": "연세올바른치과의원",
    "type": "치과의원",
    "phone": "044-862-2622",
    "code": 30123,
    "address": "세종특별자치시 다정중앙로 58, 다정메디프라자 302,303호 (다정동)",
    "latitude": 36.4957331,
    "longitude": 127.249169
  },
  {
    "No": 310,
    "name": "연세세브란스치과의원",
    "type": "치과의원",
    "phone": "044-715-5000",
    "code": 30124,
    "address": "세종특별자치시 다정중앙로 57, 다정센타프라자 305호 (다정동)",
    "latitude": 36.499529,
    "longitude": 127.2493393
  },
  {
    "No": 311,
    "name": "세종스타치과의원",
    "type": "치과의원",
    "phone": "044-905-2222",
    "code": 30128,
    "address": "세종특별자치시 나성로 125-16, 7~8층 (나성동, 스타타워)",
    "latitude": 36.49006785,
    "longitude": 127.2577658639051
  },
  {
    "No": 312,
    "name": "도치소아치과의원",
    "type": "치과의원",
    "phone": "044-865-5200",
    "code": 30124,
    "address": "세종특별자치시 다정중앙로 51, 더다정빌딩 505호 (다정동)",
    "latitude": 36.499529,
    "longitude": 127.2493393
  },
  {
    "No": 313,
    "name": "건강한이치과의원",
    "type": "치과의원",
    "phone": "044-865-7520",
    "code": 30124,
    "address": "세종특별자치시 다정중앙로 45, 다정프라자 303호 (다정동)",
    "latitude": 36.499529,
    "longitude": 127.2493393
  },
  {
    "No": 314,
    "name": "서울바른이치과의원",
    "type": "치과의원",
    "phone": "044-863-2282",
    "code": 30124,
    "address": "세종특별자치시 다정중앙로 39, 다정센터프라자2 504호 (다정동)",
    "latitude": 36.499529,
    "longitude": 127.2493393
  },
  {
    "No": 315,
    "name": "이도치과의원",
    "type": "치과의원",
    "phone": "044-867-7525",
    "code": 30127,
    "address": "세종특별자치시 한누리대로 275, 형성프라자 501,502,503호 (나성동)",
    "latitude": 36.48880674999999,
    "longitude": 127.2563853978388
  },
  {
    "No": 316,
    "name": "앨리스치과의원",
    "type": "치과의원",
    "phone": "044-417-1511",
    "code": 30127,
    "address": "세종특별자치시 한누리대로 265, 명동프라자 5층 (나성동)",
    "latitude": 36.48783305,
    "longitude": 127.2567505
  },
  {
    "No": 317,
    "name": "유디치과의원",
    "type": "치과의원",
    "phone": "044-715-7188",
    "code": 30129,
    "address": "세종특별자치시 나성로 38, 세종가로수길 38, 세종가로수길 A301,A302a,A302,A303호 (나성동)",
    "latitude": 36.4912613,
    "longitude": 127.2592172
  },
  {
    "No": 318,
    "name": "바른치과의원",
    "type": "치과의원",
    "phone": "044-868-2882",
    "code": 30127,
    "address": "세종특별자치시 한누리대로 253, 에스빌딩 502호 (나성동)",
    "latitude": 36.4868387,
    "longitude": 127.257230161524
  },
  {
    "No": 319,
    "name": "연세고마운치과의원",
    "type": "치과의원",
    "phone": "044-866-2872",
    "code": 30127,
    "address": "세종특별자치시 한누리대로 249, 406~407호 (나성동, 에스제이타워)",
    "latitude": 36.48645985,
    "longitude": 127.2574341542243
  },
  {
    "No": 320,
    "name": "세종365치과의원",
    "type": "치과의원",
    "phone": "044-715-5365",
    "code": 30127,
    "address": "세종특별자치시 한누리대로 245, 에스알파크원 402,403호 (나성동)",
    "latitude": 36.4861209,
    "longitude": 127.257643444024
  },
  {
    "No": 321,
    "name": "서울좋은치과의원",
    "type": "치과의원",
    "phone": "044-862-7528",
    "code": 30130,
    "address": "세종특별자치시 한누리대로 193, 301호 (나성동, 참미르빌딩)",
    "latitude": 36.48208195,
    "longitude": 127.2605353886061
  },
  {
    "No": 322,
    "name": "이사랑치과의원",
    "type": "치과의원",
    "phone": "044-868-0037",
    "code": 30153,
    "address": "세종특별자치시 한누리대로 2257, 판타지타워 203호 (대평동)",
    "latitude": 36.4827528,
    "longitude": 127.2979671
  },
  {
    "No": 323,
    "name": "금동치과의원",
    "type": "치과의원",
    "phone": "044-866-9037",
    "code": 30127,
    "address": "세종특별자치시 새롬중앙로 62-15, 505호 (새롬동, 해피라움W)",
    "latitude": 36.48671375000001,
    "longitude": 127.2515247078649
  },
  {
    "No": 324,
    "name": "한솔퍼스트치과의원",
    "type": "치과의원",
    "phone": "044-866-2275",
    "code": 30127,
    "address": "세종특별자치시 새롬중앙로 62-15, 201호 (새롬동, 해피라움W)",
    "latitude": 36.48671375000001,
    "longitude": 127.2515247078649
  },
  {
    "No": 325,
    "name": "바른우리치과교정과치과의원",
    "type": "치과의원",
    "phone": "044-998-2080",
    "code": 30127,
    "address": "세종특별자치시 새롬중앙로 64, 301~302호 (새롬동, 세종영광프라자)",
    "latitude": 36.4866335,
    "longitude": 127.251061135162
  },
  {
    "No": 326,
    "name": "제이와이치과의원",
    "type": "치과의원",
    "phone": "044-867-5600",
    "code": 30127,
    "address": "세종특별자치시 새롬중앙로 64, 404호 (새롬동, 세종영광프라자)",
    "latitude": 36.4866335,
    "longitude": 127.251061135162
  },
  {
    "No": 327,
    "name": "새온치과의원",
    "type": "치과의원",
    "phone": "044-867-2842",
    "code": 30126,
    "address": "세종특별자치시 새롬중앙로 67, 304호 (새롬동, 오렌지빌딩)",
    "latitude": 36.4868552,
    "longitude": 127.2501665
  },
  {
    "No": 328,
    "name": "첫마을치과의원",
    "type": "치과의원",
    "phone": "044-867-2275",
    "code": 30130,
    "address": "세종특별자치시 한누리대로 165, 세종메디피아 302,303호 (나성동)",
    "latitude": 36.47996105,
    "longitude": 127.2620420738605
  },
  {
    "No": 329,
    "name": "세종탑치과의원",
    "type": "치과의원",
    "phone": "044-715-7528",
    "code": 30126,
    "address": "세종특별자치시 새롬중앙로 59, 303호 (새롬동, 새롬빌딩)",
    "latitude": 36.4861545,
    "longitude": 127.2503188
  },
  {
    "No": 330,
    "name": "세종플란트치과의원",
    "type": "치과의원",
    "phone": "044-868-2875",
    "code": 30130,
    "address": "세종특별자치시 한누리대로 157, (나성동, 금강프라자,304호)",
    "latitude": 36.4793241,
    "longitude": 127.2625909582124
  },
  {
    "No": 331,
    "name": "새롬숲치과의원",
    "type": "치과의원",
    "phone": "044-999-2577",
    "code": 30127,
    "address": "세종특별자치시 새롬중앙로 34, 311호 (새롬동, 크리스마스빌딩)",
    "latitude": 36.4846089,
    "longitude": 127.2525505105848
  },
  {
    "No": 332,
    "name": "디어트치과의원",
    "type": "치과의원",
    "phone": "1522-1998",
    "code": 30153,
    "address": "세종특별자치시 한누리대로 2275, 알파메디컬센터 303~306호 (대평동)",
    "latitude": 36.4827528,
    "longitude": 127.2979671
  },
  {
    "No": 333,
    "name": "심치과의원",
    "type": "치과의원",
    "phone": "044-862-2871",
    "code": 30126,
    "address": "세종특별자치시 새롬중앙로 47, 405호 (새롬동, 세움빌딩)",
    "latitude": 36.48501705,
    "longitude": 127.2508150467048
  },
  {
    "No": 334,
    "name": "황실치과의원",
    "type": "치과의원",
    "phone": "044-866-2888",
    "code": 30153,
    "address": "세종특별자치시 한누리대로 2281, SM메디컬센터 410호 (대평동)",
    "latitude": 36.4827528,
    "longitude": 127.2979671
  },
  {
    "No": 335,
    "name": "새서울치과의원",
    "type": "치과의원",
    "phone": "044-866-2875",
    "code": 30083,
    "address": "세종특별자치시 금남면 용포로 113, 113",
    "latitude": 36.4670428,
    "longitude": 127.2805922
  },
  {
    "No": 336,
    "name": "엔연세감동치과의원",
    "type": "치과의원",
    "phone": "044-868-7523",
    "code": 30126,
    "address": "세종특별자치시 새롬중앙로 33, 새뜸프라자 303, 304호 (새롬동)",
    "latitude": 36.484072,
    "longitude": 127.2518349610363
  },
  {
    "No": 337,
    "name": "세종금남치과의원",
    "type": "치과의원",
    "phone": "044-863-5275",
    "code": 30083,
    "address": "세종특별자치시 금남면 용포로 80, 2층",
    "latitude": 36.4670428,
    "longitude": 127.2805922
  },
  {
    "No": 338,
    "name": "강남치과의원",
    "type": "치과의원",
    "phone": "044-867-7528",
    "code": 30083,
    "address": "세종특별자치시  금남면 용포로 63, 2층",
    "latitude": 36.4670428,
    "longitude": 127.2805922
  },
  {
    "No": 339,
    "name": "원 치과의원",
    "type": "치과의원",
    "phone": "044-864-2827",
    "code": 30053,
    "address": "세종특별자치시 장군면 장척로 407, 2층",
    "latitude": 36.5000579,
    "longitude": 127.2094118
  },
  {
    "No": 340,
    "name": "모드니치과의원",
    "type": "치과의원",
    "phone": "044-864-2876",
    "code": 30065,
    "address": "세종특별자치시 금송로 687, 3층 (가람동, 이마트세종점)",
    "latitude": 36.4708801,
    "longitude": 127.2510034803595
  },
  {
    "No": 341,
    "name": "해들치과의원",
    "type": "치과의원",
    "phone": "044-862-2804",
    "code": 30153,
    "address": "세종특별자치시 한누리대로 2257, 판타지타워 305호 (대평동)",
    "latitude": 36.4827528,
    "longitude": 127.2979671
  },
  {
    "No": 342,
    "name": "원한의원",
    "type": "한의원",
    "phone": "044-866-1122",
    "code": 30004,
    "address": "세종특별자치시 전의면 장터길 2-1, 2",
    "latitude": 36.67905975,
    "longitude": 127.2050685083235
  },
  {
    "No": 343,
    "name": "대중한의원",
    "type": "한의원",
    "phone": "044-863-5253",
    "code": 30004,
    "address": "세종특별자치시 전의면 만세길 22, ()",
    "latitude": 36.6789508,
    "longitude": 127.20450155
  },
  {
    "No": 344,
    "name": "광제중국한의원",
    "type": "한의원",
    "phone": "044-865-8338",
    "code": 30026,
    "address": "세종특별자치시 조치원읍 조치원로 42, 2층",
    "latitude": 36.6031182,
    "longitude": 127.3047269
  },
  {
    "No": 345,
    "name": "제중한의원",
    "type": "한의원",
    "phone": "044-866-3331",
    "code": 30024,
    "address": "세종특별자치시 조치원읍 조치원로 31-1, ()",
    "latitude": 36.60177665000001,
    "longitude": 127.3001880700574
  },
  {
    "No": 346,
    "name": "금강한의원",
    "type": "한의원",
    "phone": "044-862-5310",
    "code": 30027,
    "address": "세종특별자치시 조치원읍 조치원로 24, 2,3층",
    "latitude": 36.60128805,
    "longitude": 127.2994108939682
  },
  {
    "No": 347,
    "name": "박성섭한의원",
    "type": "한의원",
    "phone": "044-865-1985",
    "code": 30027,
    "address": "세종특별자치시 조치원읍 조치원4길 6, 6",
    "latitude": 36.6011446,
    "longitude": 127.2986508773389
  },
  {
    "No": 348,
    "name": "금빛한의원",
    "type": "한의원",
    "phone": "044-862-1358",
    "code": 30027,
    "address": "세종특별자치시 조치원읍 조치원4길 16, 1층",
    "latitude": 36.60071455,
    "longitude": 127.2986681850577
  },
  {
    "No": 349,
    "name": "백상한의원",
    "type": "한의원",
    "phone": "044-865-0945",
    "code": 30027,
    "address": "세종특별자치시 조치원읍 새내10길 13, 13",
    "latitude": 36.6005243,
    "longitude": 127.298929367632
  },
  {
    "No": 350,
    "name": "태화당한의원",
    "type": "한의원",
    "phone": "044-865-1991",
    "code": 30027,
    "address": "세종특별자치시 조치원읍 새내로 98, (조치원읍)",
    "latitude": 36.600606,
    "longitude": 127.2984931654618
  },
  {
    "No": 351,
    "name": "현가한의원",
    "type": "한의원",
    "phone": "044-865-1075",
    "code": 30027,
    "address": "세종특별자치시 조치원읍 새내10길 12, 2층",
    "latitude": 36.60023095,
    "longitude": 127.2990218281495
  },
  {
    "No": 352,
    "name": "경희일구한의원",
    "type": "한의원",
    "phone": "044-863-7719",
    "code": 30027,
    "address": "세종특별자치시 조치원읍 새내로 88-2, ()",
    "latitude": 36.6095573,
    "longitude": 127.2963123
  },
  {
    "No": 353,
    "name": "마음그린한의원",
    "type": "한의원",
    "phone": "044-866-7510",
    "code": 30027,
    "address": "세종특별자치시 조치원읍 새내6길 3, 3",
    "latitude": 36.5986507,
    "longitude": 127.3016423
  },
  {
    "No": 354,
    "name": "임재욱한의원",
    "type": "한의원",
    "phone": "044-862-3333",
    "code": 30034,
    "address": "세종특별자치시 조치원읍 충현로 47, ()",
    "latitude": 36.5932541,
    "longitude": 127.2982864
  },
  {
    "No": 355,
    "name": "유한의원",
    "type": "한의원",
    "phone": "044-868-9677",
    "code": 30034,
    "address": "세종특별자치시 조치원읍 군청로 88, 1층",
    "latitude": 36.5867794,
    "longitude": 127.2952435
  },
  {
    "No": 356,
    "name": "대성한의원",
    "type": "한의원",
    "phone": "044-862-3375",
    "code": 30031,
    "address": "세종특별자치시 조치원읍 도원2로 39, ()",
    "latitude": 36.593342,
    "longitude": 127.2911245
  },
  {
    "No": 357,
    "name": "부강한의원",
    "type": "한의원",
    "phone": "044-275-8155",
    "code": 30075,
    "address": "세종특별자치시 부강면 부강1길 5, (부강면)",
    "latitude": 36.5309349,
    "longitude": 127.3669079
  },
  {
    "No": 358,
    "name": "새봄빛한의원",
    "type": "한의원",
    "phone": "044-868-1075",
    "code": 30076,
    "address": "세종특별자치시 부강면 부강로 53, 2층 201호 (세종클리닉)",
    "latitude": 36.5286987,
    "longitude": 127.3664051
  },
  {
    "No": 359,
    "name": "유심한의원",
    "type": "한의원",
    "phone": "044-868-0375",
    "code": 30075,
    "address": "세종특별자치시 부강면 부강로 42, 105.106.107호",
    "latitude": 36.5286987,
    "longitude": 127.3664051
  },
  {
    "No": 360,
    "name": "예림한의원",
    "type": "한의원",
    "phone": "044-868-8880",
    "code": 30047,
    "address": "세종특별자치시 연서면 당산로 345, ()",
    "latitude": 36.5738118,
    "longitude": 127.291803
  },
  {
    "No": 361,
    "name": "평강한의원",
    "type": "한의원",
    "phone": "044-864-8270",
    "code": 30058,
    "address": "세종특별자치시 연기면 당산로 121, 2층",
    "latitude": 36.5476913,
    "longitude": 127.2804863
  },
  {
    "No": 362,
    "name": "허브힐한의원",
    "type": "한의원",
    "phone": "044-862-7975",
    "code": 30092,
    "address": "세종특별자치시 해밀3로 51, 스카이허브 3층 301호 (해밀동)",
    "latitude": 36.5290799,
    "longitude": 127.2650042502095
  },
  {
    "No": 363,
    "name": "세종센텀한의원",
    "type": "한의원",
    "phone": "044-868-6882",
    "code": 30092,
    "address": "세종특별자치시 해밀3로 43, 스카이드림 3층 301,302호 (해밀동)",
    "latitude": 36.52853145,
    "longitude": 127.264484780775
  },
  {
    "No": 364,
    "name": "아낌없이주는나무한의원",
    "type": "한의원",
    "phone": "044-865-0002",
    "code": 30146,
    "address": "세종특별자치시 한누리대로 1820, 왕관빌딩 503-1,503-2,504호 (반곡동)",
    "latitude": 36.4827528,
    "longitude": 127.2979671
  },
  {
    "No": 365,
    "name": "반곡한의원",
    "type": "한의원",
    "phone": "044-216-6200",
    "code": 30146,
    "address": "세종특별자치시 한누리대로 1824, 조이프라자 405~406호 (반곡동)",
    "latitude": 36.4827528,
    "longitude": 127.2979671
  },
  {
    "No": 366,
    "name": "백헌한의원",
    "type": "한의원",
    "phone": "044-415-1802",
    "code": 30146,
    "address": "세종특별자치시 한누리대로 1828, 시드니블루 407,408호 (반곡동)",
    "latitude": 36.49808274999999,
    "longitude": 127.3115761442687
  },
  {
    "No": 367,
    "name": "로안한의원",
    "type": "한의원",
    "phone": "044-866-7579",
    "code": 30146,
    "address": "세종특별자치시 한누리대로 1844, 402,403호 (반곡동)",
    "latitude": 36.4827528,
    "longitude": 127.2979671
  },
  {
    "No": 368,
    "name": "경희한의원",
    "type": "한의원",
    "phone": "044-862-1025",
    "code": 30100,
    "address": "세종특별자치시 한누리대로 583, 403호 (도담동, 도담센트럴프라자)",
    "latitude": 36.4827528,
    "longitude": 127.2979671
  },
  {
    "No": 369,
    "name": "이룸한의원",
    "type": "한의원",
    "phone": "044-863-4107",
    "code": 30098,
    "address": "세종특별자치시 보듬4로 9, 4F-6호, 4F-7호호 (도담동, 도램마을11단지)",
    "latitude": 36.5130387,
    "longitude": 127.2625266
  },
  {
    "No": 370,
    "name": "세종도담한의원",
    "type": "한의원",
    "phone": "044-864-5852",
    "code": 30100,
    "address": "세종특별자치시 보듬3로 8-20, 207호 (도담동, 한신휴시티)",
    "latitude": 36.5115136,
    "longitude": 127.2540775
  },
  {
    "No": 371,
    "name": "여담한의원",
    "type": "한의원",
    "phone": "044-715-5868",
    "code": 30107,
    "address": "세종특별자치시 도움8로 91, 세종마치 402호 (어진동)",
    "latitude": 36.5056225,
    "longitude": 127.2659903
  },
  {
    "No": 372,
    "name": "경희부부한의원",
    "type": "한의원",
    "phone": "044-905-2200",
    "code": 30103,
    "address": "세종특별자치시 절재로 194, 중앙타운 302(일부)호 (어진동)",
    "latitude": 36.5085703,
    "longitude": 127.2614127
  },
  {
    "No": 373,
    "name": "세종시365으랏차한의원",
    "type": "한의원",
    "phone": "044-864-5671",
    "code": 30103,
    "address": "세종특별자치시 절재로 194, 407호 (어진동, 세종드림)",
    "latitude": 36.5085703,
    "longitude": 127.2614127
  },
  {
    "No": 374,
    "name": "아이맘편작한의원",
    "type": "한의원",
    "phone": "044-864-8375",
    "code": 30103,
    "address": "세종특별자치시 절재로 194, 중앙타운 5층 512호 (어진동)",
    "latitude": 36.5085703,
    "longitude": 127.2614127
  },
  {
    "No": 375,
    "name": "맑은숲한의원",
    "type": "한의원",
    "phone": "044-868-1085",
    "code": 30102,
    "address": "세종특별자치시 한누리대로 499, 401호 (어진동, 세종포스트빌딩)",
    "latitude": 36.5080745,
    "longitude": 127.2611599706632
  },
  {
    "No": 376,
    "name": "동경한의원",
    "type": "한의원",
    "phone": "044-865-7573",
    "code": 30151,
    "address": "세종특별자치시 소담3로 8, 새샘마을7단지 근린생활시설 1층 5호 (소담동)",
    "latitude": 36.486249,
    "longitude": 127.2987262
  },
  {
    "No": 377,
    "name": "세종청사 부속한의원",
    "type": "한의원",
    "phone": "044-200-1566",
    "code": 30064,
    "address": "세종특별자치시 다솜2로 94, 5동 301호 (어진동, 정부세종청사)",
    "latitude": 36.505209,
    "longitude": 127.2657551
  },
  {
    "No": 378,
    "name": "태이재한의원",
    "type": "한의원",
    "phone": "044-415-1919",
    "code": 30150,
    "address": "세종특별자치시 한누리대로 2009, 펠리체타워2 203호 (소담동)",
    "latitude": 36.48500780000001,
    "longitude": 127.3007044524885
  },
  {
    "No": 379,
    "name": "햇님한의원",
    "type": "한의원",
    "phone": "044-866-6777",
    "code": 30150,
    "address": "세종특별자치시 소담1로 16, 지엘플렉스2 302호 (소담동)",
    "latitude": 36.48461575,
    "longitude": 127.3011689568054
  },
  {
    "No": 380,
    "name": "아름한의원",
    "type": "한의원",
    "phone": "044-868-9600",
    "code": 30100,
    "address": "세종특별자치시 보듬3로 104-19, 303호 (아름동, 세석빌딩)",
    "latitude": 36.5115136,
    "longitude": 127.2540775
  },
  {
    "No": 381,
    "name": "세종소담한의원",
    "type": "한의원",
    "phone": "044-862-3500",
    "code": 30151,
    "address": "세종특별자치시 한누리대로 2018, 407~408호 (소담동, 사이언스타운)",
    "latitude": 36.484684,
    "longitude": 127.29959
  },
  {
    "No": 382,
    "name": "정토한의원",
    "type": "한의원",
    "phone": "044-863-7588",
    "code": 30100,
    "address": "세종특별자치시 보듬3로 92, 303호 (아름동, 해피라움2상가)",
    "latitude": 36.5115136,
    "longitude": 127.2540775
  },
  {
    "No": 383,
    "name": "경희바른몸한의원",
    "type": "한의원",
    "phone": "044-868-1015",
    "code": 30151,
    "address": "세종특별자치시 한누리대로 2022, 504호,505호 (소담동, 아크레타 아이콤스타타워)",
    "latitude": 36.48454479999999,
    "longitude": 127.2992428972032
  },
  {
    "No": 384,
    "name": "정부세종청사 중앙동 부속한의원",
    "type": "한의원",
    "phone": "044-204-1417",
    "code": 30112,
    "address": "세종특별자치시 도움6로 42, 정부세종청사 중앙동 2층 의무실(일부)호 (어진동)",
    "latitude": 36.5030213,
    "longitude": 127.2665918
  },
  {
    "No": 385,
    "name": "에이스한의원",
    "type": "한의원",
    "phone": "044-867-1076",
    "code": 30100,
    "address": "세종특별자치시 보듬3로 100, 405-2호 (아름동, 해피라움1)",
    "latitude": 36.51197165,
    "longitude": 127.2486843306488
  },
  {
    "No": 386,
    "name": "범지기한의원",
    "type": "한의원",
    "phone": "044-998-0700",
    "code": 30100,
    "address": "세종특별자치시 보듬3로 101, 2층 201,202호 (아름동)",
    "latitude": 36.5113085,
    "longitude": 127.2488778
  },
  {
    "No": 387,
    "name": "경희고운한의원",
    "type": "한의원",
    "phone": "044-864-9575",
    "code": 30062,
    "address": "세종특별자치시 마음로 264, 301층 (고운동, 고운프라자)",
    "latitude": 36.5021336,
    "longitude": 127.2409585
  },
  {
    "No": 388,
    "name": "드림여성한의원",
    "type": "한의원",
    "phone": "044-865-7765",
    "code": 30100,
    "address": "세종특별자치시 보듬3로 143, 402호 (아름동, 대영프라자)",
    "latitude": 36.5115136,
    "longitude": 127.2540775
  },
  {
    "No": 389,
    "name": "세종함소아한의원",
    "type": "한의원",
    "phone": "044-868-8333",
    "code": 30100,
    "address": "세종특별자치시 보듬3로 143, 405,406호 (아름동, 대영프라자)",
    "latitude": 36.5115136,
    "longitude": 127.2540775
  },
  {
    "No": 390,
    "name": "어진서부한의원",
    "type": "한의원",
    "phone": "044-960-5333",
    "code": 30116,
    "address": "세종특별자치시 한누리대로 411, KT&G세종타워A 2층 3호 (어진동)",
    "latitude": 36.50114005,
    "longitude": 127.258826443972
  },
  {
    "No": 391,
    "name": "세종청사 제2부속한의원",
    "type": "한의원",
    "phone": "044-203-1404",
    "code": 30118,
    "address": "세종특별자치시 한누리대로 402, 13동 434호 (어진동, 정부세종청사)",
    "latitude": 36.4997455,
    "longitude": 127.2601498
  },
  {
    "No": 392,
    "name": "율제한의원",
    "type": "한의원",
    "phone": "044-417-1585",
    "code": 30064,
    "address": "세종특별자치시 도움3로 105-7, 302호 (종촌동, 메디케어빌딩)",
    "latitude": 36.5036098,
    "longitude": 127.2558571
  },
  {
    "No": 393,
    "name": "바른한의원",
    "type": "한의원",
    "phone": "044-868-0380",
    "code": 30064,
    "address": "세종특별자치시 달빛로 59, 호만빌딩 203호,301호,302호 (종촌동)",
    "latitude": 36.5017286,
    "longitude": 127.2503313
  },
  {
    "No": 394,
    "name": "박승룡한의원",
    "type": "한의원",
    "phone": "044-867-2075",
    "code": 30064,
    "address": "세종특별자치시 달빛로 47, 202호 (종촌동, 종촌파크프라자)",
    "latitude": 36.5017286,
    "longitude": 127.2503313
  },
  {
    "No": 395,
    "name": "산돌한의원",
    "type": "한의원",
    "phone": "044-865-7585",
    "code": 30064,
    "address": "세종특별자치시 도움1로 106, 메가시티 502,508,509,514호 (종촌동)",
    "latitude": 36.50265045,
    "longitude": 127.2479698505372
  },
  {
    "No": 396,
    "name": "박소영한의원",
    "type": "한의원",
    "phone": "044-865-7075",
    "code": 30064,
    "address": "세종특별자치시 도움1로 108, 413호 (종촌동, 몰리브)",
    "latitude": 36.5024157,
    "longitude": 127.2471534
  },
  {
    "No": 397,
    "name": "숨편한한의원",
    "type": "한의원",
    "phone": "044-866-0175",
    "code": 30064,
    "address": "세종특별자치시 도움1로 108, 402-2.420호 (종촌동, 몰리브)",
    "latitude": 36.5024157,
    "longitude": 127.2471534
  },
  {
    "No": 398,
    "name": "본한의원",
    "type": "한의원",
    "phone": "044-862-7755",
    "code": 30150,
    "address": "세종특별자치시 한누리대로 2135, 스타힐타워1 201,202호 (보람동)",
    "latitude": 36.4783404,
    "longitude": 127.2891532289831
  },
  {
    "No": 399,
    "name": "생생당한의원",
    "type": "한의원",
    "phone": "044-868-3284",
    "code": 30151,
    "address": "세종특별자치시 한누리대로 2144, 스마트허브Ⅱ 301호 (보람동)",
    "latitude": 36.47876515,
    "longitude": 127.2880125476237
  },
  {
    "No": 400,
    "name": "장효길한의원",
    "type": "한의원",
    "phone": "044-867-8758",
    "code": 30150,
    "address": "세종특별자치시 한누리대로 2143, 407호 (보람동, 금강시티타워)",
    "latitude": 36.47806755,
    "longitude": 127.288434543927
  },
  {
    "No": 401,
    "name": "청심당한의원",
    "type": "한의원",
    "phone": "044-866-1875",
    "code": 30150,
    "address": "세종특별자치시 남세종로 454, 403호 (보람동, 강남제일타워)",
    "latitude": 36.47720815,
    "longitude": 127.289712
  },
  {
    "No": 402,
    "name": "동인한의원",
    "type": "한의원",
    "phone": "044-715-7512",
    "code": 30150,
    "address": "세종특별자치시 호려울로 19, 스마트허브Ⅲ 304호 (보람동)",
    "latitude": 36.4772557,
    "longitude": 127.288814151803
  },
  {
    "No": 403,
    "name": "봄뜰부부한의원",
    "type": "한의원",
    "phone": "044-862-6193",
    "code": 30150,
    "address": "세종특별자치시 남세종로 466, 303호 (보람동, 아평빌딩)",
    "latitude": 36.47665485,
    "longitude": 127.2884490548789
  },
  {
    "No": 404,
    "name": "오케이한방병원",
    "type": "한방병원",
    "phone": "044-1668-0090",
    "code": 30123,
    "address": "세종특별자치시 한누리대로 331, 2층,3층 (301~315)호 (나성동, SR파크센텀)",
    "latitude": 36.493933,
    "longitude": 127.2558373966887
  },
  {
    "No": 405,
    "name": "행복경희한의원",
    "type": "한의원",
    "phone": "044-867-7599",
    "code": 30063,
    "address": "세종특별자치시 고운서길 10, 303호 (고운동, 대현빌딩)",
    "latitude": 36.5050328,
    "longitude": 127.234761
  },
  {
    "No": 406,
    "name": "고운마음한의원",
    "type": "한의원",
    "phone": "044-863-7517",
    "code": 30063,
    "address": "세종특별자치시 고운서길 19, 304호 (고운동, 스마트큐브1)",
    "latitude": 36.5050328,
    "longitude": 127.234761
  },
  {
    "No": 407,
    "name": "세종온정성한의원",
    "type": "한의원",
    "phone": "044-866-1207",
    "code": 30128,
    "address": "세종특별자치시 나성북1로 12, 메가타워2 301호 (나성동)",
    "latitude": 36.49093664999999,
    "longitude": 127.2575600922291
  },
  {
    "No": 408,
    "name": "계림한의원",
    "type": "한의원",
    "phone": "044-868-2355",
    "code": 30123,
    "address": "세종특별자치시 다정중앙로 58, 다정메디프라자 403호 (다정동)",
    "latitude": 36.4957331,
    "longitude": 127.249169
  },
  {
    "No": 409,
    "name": "성진한의원",
    "type": "한의원",
    "phone": "044-903-0525",
    "code": 30124,
    "address": "세종특별자치시 다정중앙로 57, 다정센타프라자 203호 (다정동)",
    "latitude": 36.499529,
    "longitude": 127.2493393
  },
  {
    "No": 410,
    "name": "퍼스트한의원",
    "type": "한의원",
    "phone": "044-417-7875",
    "code": 30128,
    "address": "세종특별자치시 나성북로 30, 퍼스트원 628,629,630,631호 (나성동)",
    "latitude": 36.4901699,
    "longitude": 127.2628923
  },
  {
    "No": 411,
    "name": "가온한의원",
    "type": "한의원",
    "phone": "044-866-1998",
    "code": 30124,
    "address": "세종특별자치시 다정중앙로 51, 더다정빌딩 504호 (다정동)",
    "latitude": 36.499529,
    "longitude": 127.2493393
  },
  {
    "No": 412,
    "name": "경희으뜸한의원",
    "type": "한의원",
    "phone": "044-868-1375",
    "code": 30124,
    "address": "세종특별자치시 다정중앙로 51, 더다정빌딩 2층 203호 (다정동)",
    "latitude": 36.499529,
    "longitude": 127.2493393
  },
  {
    "No": 413,
    "name": "세종양지한의원",
    "type": "한의원",
    "phone": "044-868-5003",
    "code": 30124,
    "address": "세종특별자치시 다정중앙로 39, 다정센터프라자2 401,402호 (다정동)",
    "latitude": 36.499529,
    "longitude": 127.2493393
  },
  {
    "No": 414,
    "name": "동행의원한의원",
    "type": "한의원",
    "phone": "044-868-9935",
    "code": 30127,
    "address": "세종특별자치시 한누리대로 265, 명동프라자 601,602,603일부호 (나성동)",
    "latitude": 36.48783305,
    "longitude": 127.2567505
  },
  {
    "No": 415,
    "name": "종화한의원",
    "type": "한의원",
    "phone": "044-867-6262",
    "code": 30127,
    "address": "세종특별자치시 한누리대로 249, 307호 (나성동, 에스제이타워)",
    "latitude": 36.48645985,
    "longitude": 127.2574341542243
  },
  {
    "No": 416,
    "name": "약손한의원",
    "type": "한의원",
    "phone": "044-867-1999",
    "code": 30152,
    "address": "세종특별자치시 한누리대로 2236, 해들마을 6단지 상가동 2층 C214,C215호 (대평동)",
    "latitude": 36.4827528,
    "longitude": 127.2979671
  },
  {
    "No": 417,
    "name": "자연치유한의원",
    "type": "한의원",
    "phone": "044-864-0080",
    "code": 30089,
    "address": "세종특별자치시 금남면 청룡안길 114-112, 1.2동 2.3층",
    "latitude": 36.44944,
    "longitude": 127.3248
  },
  {
    "No": 418,
    "name": "세종상신한의원",
    "type": "한의원",
    "phone": "044-867-8275",
    "code": 30130,
    "address": "세종특별자치시 한누리대로 193, 303호 (나성동, 참미르메디칼)",
    "latitude": 36.48208195,
    "longitude": 127.2605353886061
  },
  {
    "No": 419,
    "name": "세종튼튼한의원",
    "type": "한의원",
    "phone": "044-868-0020",
    "code": 30153,
    "address": "세종특별자치시 한누리대로 2257, 판타지타워 205호 (대평동)",
    "latitude": 36.4827528,
    "longitude": 127.2979671
  },
  {
    "No": 420,
    "name": "밝은한방병원",
    "type": "한방병원",
    "phone": "044-867-9300",
    "code": 30152,
    "address": "세종특별자치시 한누리대로 2264, 씨티오브드림 4~5층,6(일부)층 (대평동)",
    "latitude": 36.47300315,
    "longitude": 127.2769025448234
  },
  {
    "No": 421,
    "name": "세종경희한방병원",
    "type": "한방병원",
    "phone": "044-414-9599",
    "code": 30152,
    "address": "세종특별자치시 대평4길 17, 센트럴테라스 4, 5층 (대평동)",
    "latitude": 36.47324740000001,
    "longitude": 127.2759518649099
  },
  {
    "No": 422,
    "name": "이제한의원",
    "type": "한의원",
    "phone": "044-715-7505",
    "code": 30126,
    "address": "세종특별자치시 새롬중앙로 67, 오렌지빌딩 302, 303호 (새롬동)",
    "latitude": 36.4868552,
    "longitude": 127.2501665
  },
  {
    "No": 423,
    "name": "해들한의원",
    "type": "한의원",
    "phone": "044-868-7910",
    "code": 30153,
    "address": "세종특별자치시  한누리대로 2265, 303호 (대평동)",
    "latitude": 36.4827528,
    "longitude": 127.2979671
  },
  {
    "No": 424,
    "name": "목은한의원",
    "type": "한의원",
    "phone": "044-868-4775",
    "code": 30130,
    "address": "세종특별자치시 한누리대로 169, 세종행복타워 302호 (나성동)",
    "latitude": 36.4802285,
    "longitude": 127.2618513040982
  },
  {
    "No": 425,
    "name": "자인한의원",
    "type": "한의원",
    "phone": "044-272-8875",
    "code": 30126,
    "address": "세종특별자치시 새롬중앙로 63, 세종온누리타워 202호,203호 (새롬동)",
    "latitude": 36.4865647,
    "longitude": 127.2502502777708
  },
  {
    "No": 426,
    "name": "세종경희한의원",
    "type": "한의원",
    "phone": "044-864-1075",
    "code": 30130,
    "address": "세종특별자치시 한누리대로 165, 세종메디피아 310호 (나성동)",
    "latitude": 36.47996105,
    "longitude": 127.2620420738605
  },
  {
    "No": 427,
    "name": "다정한의원",
    "type": "한의원",
    "phone": "044-868-1090",
    "code": 30126,
    "address": "세종특별자치시 새롬중앙로 59, 302호 (새롬동, 새롬빌딩)",
    "latitude": 36.4861545,
    "longitude": 127.2503188
  },
  {
    "No": 428,
    "name": "세종대일당한의원",
    "type": "한의원",
    "phone": "044-866-0002",
    "code": 30130,
    "address": "세종특별자치시 한누리대로 157, (나성동, 금강프라자 503호)",
    "latitude": 36.4793241,
    "longitude": 127.2625909582124
  },
  {
    "No": 429,
    "name": "사상참경희한의원",
    "type": "한의원",
    "phone": "044-999-1075",
    "code": 30127,
    "address": "세종특별자치시 새롬중앙로 34, 408호 (새롬동, 크리스마스빌딩)",
    "latitude": 36.4846089,
    "longitude": 127.2525505105848
  },
  {
    "No": 430,
    "name": "초목한의원",
    "type": "한의원",
    "phone": "044-868-7520",
    "code": 30126,
    "address": "세종특별자치시 새롬중앙로 55, 201호 (새롬동, 행운빌딩)",
    "latitude": 36.48580635,
    "longitude": 127.2504335420053
  },
  {
    "No": 431,
    "name": "김종열한의원",
    "type": "한의원",
    "phone": "070-7576-7077",
    "code": 30153,
    "address": "세종특별자치시 한누리대로 2275, 알파메디컬센터 3층 312,313호 (대평동)",
    "latitude": 36.4827528,
    "longitude": 127.2979671
  },
  {
    "No": 432,
    "name": "새롬한의원",
    "type": "한의원",
    "phone": "044-863-8375",
    "code": 30126,
    "address": "세종특별자치시 새롬중앙로 51, 303호 (새롬동, 에스월드빌딩)",
    "latitude": 36.4855379,
    "longitude": 127.2505297021922
  },
  {
    "No": 433,
    "name": "평화당한의원",
    "type": "한의원",
    "phone": "044-864-7600",
    "code": 30126,
    "address": "세종특별자치시 새롬중앙로 47, 304호 (새롬동, 세움빌딩)",
    "latitude": 36.48501705,
    "longitude": 127.2508150467048
  },
  {
    "No": 434,
    "name": "바로선한의원",
    "type": "한의원",
    "phone": "044-865-8572",
    "code": 30126,
    "address": "세종특별자치시 새롬중앙로 33, 새뜸프라자 201호,302호 (새롬동)",
    "latitude": 36.484072,
    "longitude": 127.2518349610363
  },
  {
    "No": 435,
    "name": "세종하이한방병원",
    "type": "한방병원",
    "phone": "",
    "code": 30153,
    "address": "세종특별자치시 갈매로 58, 황산프라자 3층 6층 (대평동)",
    "latitude": 36.4900277,
    "longitude": 127.2631608
  },
  {
    "No": 436,
    "name": "세종한의원",
    "type": "한의원",
    "phone": "044-866-2011",
    "code": 30083,
    "address": "세종특별자치시 금남면 용포로 64, 1.2층",
    "latitude": 36.4670428,
    "longitude": 127.2805922
  },
  {
    "No": 437,
    "name": "둥구나무한의원",
    "type": "한의원",
    "phone": "044-866-7555",
    "code": 0,
    "address": "세종특별자치시 금남면 용포로 58, ((2층))",
    "latitude": 36.4670428,
    "longitude": 127.2805922
  },
  {
    "No": 438,
    "name": "한솔한의원",
    "type": "한의원",
    "phone": "044-863-4455",
    "code": 30130,
    "address": "세종특별자치시 누리로 54, 202호,203호,204-1호 (한솔동, 첫마을5단지)",
    "latitude": 36.47730745,
    "longitude": 127.2512146
  },
  {
    "No": 439,
    "name": "행복한의원",
    "type": "한의원",
    "phone": "044-856-0075",
    "code": 30053,
    "address": "세종특별자치시 장군면 장척로 405-2, ()",
    "latitude": 36.5000579,
    "longitude": 127.2094118
  },
  {
    "No": 440,
    "name": "전동면보건지소",
    "type": "보건지소",
    "phone": "044-301-2282",
    "code": 30011,
    "address": "세종특별자치시 전동면 운주산로 386, ()",
    "latitude": 36.65598565000001,
    "longitude": 127.2645343400127
  },
  {
    "No": 441,
    "name": "소정면보건지소",
    "type": "보건지소",
    "phone": "044-301-2292",
    "code": 30001,
    "address": "세종특별자치시 소정면 소정구길 201, 소정면보건지소",
    "latitude": 36.7220764,
    "longitude": 127.1572740477203
  },
  {
    "No": 442,
    "name": "전의면보건지소",
    "type": "보건지소",
    "phone": "044-301-2273",
    "code": 30004,
    "address": "세종특별자치시 전의면 만세길 20-12, ()",
    "latitude": 36.6782136,
    "longitude": 127.2048324
  },
  {
    "No": 443,
    "name": "송곡보건진료소",
    "type": "보건진료소",
    "phone": "044-867-1665",
    "code": 30014,
    "address": "세종특별자치시 전동면 금이로 184, ()",
    "latitude": 36.6310642,
    "longitude": 127.2628886
  },
  {
    "No": 444,
    "name": "세종특별자치시보건소",
    "type": "보건소",
    "phone": "044-301-2000",
    "code": 30029,
    "address": "세종특별자치시 조치원읍 대첩로 32, 세종특별자치시보건소",
    "latitude": 36.5948673,
    "longitude": 127.2874694
  },
  {
    "No": 445,
    "name": "응암보건진료소",
    "type": "보건진료소",
    "phone": "041-864-9202",
    "code": 30067,
    "address": "세종특별자치시 연동면 송암로 246, (응암보건진료소)",
    "latitude": 36.5546447,
    "longitude": 127.3454543
  },
  {
    "No": 446,
    "name": "연서면보건지소",
    "type": "보건지소",
    "phone": "044-301-2262",
    "code": 30043,
    "address": "세종특별자치시 연서면 대첩로 238, ()",
    "latitude": 36.59255825,
    "longitude": 127.2716501755424
  },
  {
    "No": 447,
    "name": "연동면보건지소",
    "type": "보건지소",
    "phone": "044-301-2223",
    "code": 30068,
    "address": "세종특별자치시 연동면 장욱진로 7, 연동면 복합커뮤니티센터",
    "latitude": 36.55535885,
    "longitude": 127.3272725132834
  },
  {
    "No": 448,
    "name": "부강면보건지소",
    "type": "보건지소",
    "phone": "044-301-2232",
    "code": 30075,
    "address": "세종특별자치시 부강면 부강5길 38, (부강면사무소)",
    "latitude": 36.52977655,
    "longitude": 127.3709340618383
  },
  {
    "No": 449,
    "name": "양곡보건진료소",
    "type": "보건진료소",
    "phone": "044-867-3471",
    "code": 30007,
    "address": "세종특별자치시 전의면 양지편길 17, (양곡보건진료소)",
    "latitude": 36.6367543,
    "longitude": 127.1810516
  },
  {
    "No": 450,
    "name": "쌍류보건진료소",
    "type": "보건진료소",
    "phone": "044-863-0176",
    "code": 30041,
    "address": "세종특별자치시 연서면 도신고복로 427, ()",
    "latitude": 36.5899169,
    "longitude": 127.2028112
  },
  {
    "No": 451,
    "name": "연기면보건지소",
    "type": "보건지소",
    "phone": "044-301-2212",
    "code": 30059,
    "address": "세종특별자치시 연기면 당산로 81, ()",
    "latitude": 36.5418233,
    "longitude": 127.273795414883
  },
  {
    "No": 452,
    "name": "와촌보건진료소",
    "type": "보건진료소",
    "phone": "041-863-4700",
    "code": 30046,
    "address": "세종특별자치시 연서면 용연로 635, (연서면)",
    "latitude": 36.5571646,
    "longitude": 127.2339849
  },
  {
    "No": 453,
    "name": "황용보건진료소",
    "type": "보건진료소",
    "phone": "044-867-8865",
    "code": 30082,
    "address": "세종특별자치시  금남면 금남구즉로 487, (금남면)",
    "latitude": 36.4794573,
    "longitude": 127.3073465
  },
  {
    "No": 454,
    "name": "송학보건진료소",
    "type": "보건진료소",
    "phone": "044-852-0564",
    "code": 30050,
    "address": "세종특별자치시 장군면 황미창말길 5-4, (송학보건진료소)",
    "latitude": 36.5387169,
    "longitude": 127.1864586
  },
  {
    "No": 455,
    "name": "남부통합보건지소",
    "type": "보건지소",
    "phone": "044-301-2400",
    "code": 30127,
    "address": "세종특별자치시 새롬로 14, 3층 (새롬동)",
    "latitude": 36.4860662,
    "longitude": 127.25684
  },
  {
    "No": 456,
    "name": "금남면보건지소",
    "type": "보건지소",
    "phone": "044-301-2243",
    "code": 30083,
    "address": "세종특별자치시 금남면 용포로 59, ()",
    "latitude": 36.4670428,
    "longitude": 127.2805922
  },
  {
    "No": 457,
    "name": "장군면보건지소",
    "type": "보건지소",
    "phone": "044-301-2252",
    "code": 30053,
    "address": "세종특별자치시 장군면 장척로 398-3, ()",
    "latitude": 36.5001948,
    "longitude": 127.2160389
  },
  {
    "No": 458,
    "name": "현대약국",
    "type": "약국",
    "phone": "044-863-2069",
    "code": 30004,
    "address": "세종특별자치시 전의면 읍내길 11, 11",
    "latitude": 36.68024225,
    "longitude": 127.2044106727649
  },
  {
    "No": 459,
    "name": "소정약국",
    "type": "약국",
    "phone": "044-865-9962",
    "code": 30001,
    "address": "세종특별자치시 소정면 소정구길 164, 101호",
    "latitude": 36.7248193,
    "longitude": 127.1507438
  },
  {
    "No": 460,
    "name": "다정약국",
    "type": "약국",
    "phone": "044-553-3005",
    "code": 30001,
    "address": "세종특별자치시 소정면 소정구길 163, ()",
    "latitude": 36.7248193,
    "longitude": 127.1507438
  },
  {
    "No": 461,
    "name": "삼성약국",
    "type": "약국",
    "phone": "044-863-2043",
    "code": 30004,
    "address": "세종특별자치시 전의면 운주산로 1195, 1195",
    "latitude": 36.6792686,
    "longitude": 127.204159527902
  },
  {
    "No": 462,
    "name": "백일약국",
    "type": "약국",
    "phone": "044-905-0845",
    "code": 30016,
    "address": "세종특별자치시 조치원읍 섭골길 38, ()",
    "latitude": 36.6180202,
    "longitude": 127.2852835
  },
  {
    "No": 463,
    "name": "해오름 온누리 약국",
    "type": "약국",
    "phone": "044-868-2375",
    "code": 30026,
    "address": "세종특별자치시 조치원읍 조치원10길 9, 2동 1호",
    "latitude": 36.6009204,
    "longitude": 127.3038256
  },
  {
    "No": 464,
    "name": "허약국",
    "type": "약국",
    "phone": "044-865-7900",
    "code": 30026,
    "address": "세종특별자치시 조치원읍 조치원로 42-2, 42",
    "latitude": 36.6031182,
    "longitude": 127.3047269
  },
  {
    "No": 465,
    "name": "세인약국",
    "type": "약국",
    "phone": "044-866-2229",
    "code": 30024,
    "address": "세종특별자치시 조치원읍 새내로 132, (조치원읍)",
    "latitude": 36.60359415,
    "longitude": 127.29797717093
  },
  {
    "No": 466,
    "name": "바다약국",
    "type": "약국",
    "phone": "044-866-2070",
    "code": 30024,
    "address": "세종특별자치시 조치원읍 조치원로 31, 31",
    "latitude": 36.60180985,
    "longitude": 127.3000718946521
  },
  {
    "No": 467,
    "name": "우리들약국",
    "type": "약국",
    "phone": "044-868-8503",
    "code": 30024,
    "address": "세종특별자치시 조치원읍 새내로 122, 메가박스 126~127호",
    "latitude": 36.6029443,
    "longitude": 127.2982011524623
  },
  {
    "No": 468,
    "name": "김약국",
    "type": "약국",
    "phone": "044-865-5331",
    "code": 30027,
    "address": "세종특별자치시 조치원읍 조치원로 26, 26",
    "latitude": 36.6031182,
    "longitude": 127.3047269
  },
  {
    "No": 469,
    "name": "믿음약국",
    "type": "약국",
    "phone": "044-862-8088",
    "code": 30023,
    "address": "세종특별자치시 조치원읍 새내로 113-1, ()",
    "latitude": 36.6095573,
    "longitude": 127.2963123
  },
  {
    "No": 470,
    "name": "굿모닝약국",
    "type": "약국",
    "phone": "044-866-1383",
    "code": 30027,
    "address": "세종특별자치시 조치원읍 조치원로 22, 1층",
    "latitude": 36.6011326,
    "longitude": 127.2992027333628
  },
  {
    "No": 471,
    "name": "다나약국",
    "type": "약국",
    "phone": "044-866-2700",
    "code": 30027,
    "address": "세종특별자치시 조치원읍 새내로 102, 102",
    "latitude": 36.6011135,
    "longitude": 127.2983968157447
  },
  {
    "No": 472,
    "name": "새건강약국",
    "type": "약국",
    "phone": "044-862-2169",
    "code": 30023,
    "address": "세종특별자치시 조치원읍 조치원로 7, 7",
    "latitude": 36.60150255000001,
    "longitude": 127.2976495953986
  },
  {
    "No": 473,
    "name": "조치원약국",
    "type": "약국",
    "phone": "044-865-3873",
    "code": 30027,
    "address": "세종특별자치시 조치원읍 새내로 98, 98",
    "latitude": 36.600606,
    "longitude": 127.2984931654618
  },
  {
    "No": 474,
    "name": "종로약국",
    "type": "약국",
    "phone": "044-866-3800",
    "code": 30023,
    "address": "세종특별자치시 조치원읍 조치원로 3, (조치원읍)",
    "latitude": 36.6013917,
    "longitude": 127.2972115
  },
  {
    "No": 475,
    "name": "성모약국",
    "type": "약국",
    "phone": "044-862-2900",
    "code": 30028,
    "address": "세종특별자치시 조치원읍 조치원2길 5, ()",
    "latitude": 36.60104095,
    "longitude": 127.2976446270395
  },
  {
    "No": 476,
    "name": "십자약국",
    "type": "약국",
    "phone": "044-868-7705",
    "code": 30027,
    "address": "세종특별자치시 조치원읍 새내로 96, 96",
    "latitude": 36.6095573,
    "longitude": 127.2963123
  },
  {
    "No": 477,
    "name": "조치원햇살약국",
    "type": "약국",
    "phone": "044-867-8787",
    "code": 30028,
    "address": "세종특별자치시 조치원읍 새내로 97, ()",
    "latitude": 36.60043055,
    "longitude": 127.2980785
  },
  {
    "No": 478,
    "name": "감초당 온누리 약국",
    "type": "약국",
    "phone": "044-865-3629",
    "code": 30028,
    "address": "세종특별자치시 조치원읍 새내9길 3, ()",
    "latitude": 36.6001976,
    "longitude": 127.2981536
  },
  {
    "No": 479,
    "name": "역전약국",
    "type": "약국",
    "phone": "044-865-2169",
    "code": 30028,
    "address": "세종특별자치시 조치원읍 으뜸길 208, 208",
    "latitude": 36.6008241,
    "longitude": 127.2970101
  },
  {
    "No": 480,
    "name": "좋은약국",
    "type": "약국",
    "phone": "044-866-3628",
    "code": 30027,
    "address": "세종특별자치시 조치원읍 새내로 88, 88",
    "latitude": 36.6095573,
    "longitude": 127.2963123
  },
  {
    "No": 481,
    "name": "신세종약국",
    "type": "약국",
    "phone": "044-863-1783",
    "code": 30027,
    "address": "세종특별자치시 조치원읍 새내로 88-1, ()",
    "latitude": 36.6095573,
    "longitude": 127.2963123
  },
  {
    "No": 482,
    "name": "성지약국",
    "type": "약국",
    "phone": "044-868-0167",
    "code": 30027,
    "address": "세종특별자치시 조치원읍 새내8길 7, 102호",
    "latitude": 36.59946345,
    "longitude": 127.2988499542534
  },
  {
    "No": 483,
    "name": "참편한약국",
    "type": "약국",
    "phone": "044-863-1477",
    "code": 30021,
    "address": "세종특별자치시 조치원읍 행복8길 2, 102호",
    "latitude": 36.6031544,
    "longitude": 127.2913333
  },
  {
    "No": 484,
    "name": "열린약국",
    "type": "약국",
    "phone": "044-862-2826",
    "code": 30028,
    "address": "세종특별자치시 조치원읍 새내로 77-1, 77",
    "latitude": 36.6095573,
    "longitude": 127.2963123
  },
  {
    "No": 485,
    "name": "샬롬약국",
    "type": "약국",
    "phone": "044-864-3478",
    "code": 30027,
    "address": "세종특별자치시  조치원읍 새내로 72, (조치원읍)",
    "latitude": 36.6095573,
    "longitude": 127.2963123
  },
  {
    "No": 486,
    "name": "대수약국",
    "type": "약국",
    "phone": "044-865-6562",
    "code": 30028,
    "address": "세종특별자치시 조치원읍 새내5길 2, 2",
    "latitude": 36.5974034,
    "longitude": 127.2981664
  },
  {
    "No": 487,
    "name": "하나약국",
    "type": "약국",
    "phone": "044-866-8569",
    "code": 30027,
    "address": "세종특별자치시 조치원읍 새내로 68, ()",
    "latitude": 36.6095573,
    "longitude": 127.2963123
  },
  {
    "No": 488,
    "name": "참좋은약국",
    "type": "약국",
    "phone": "044-868-8687",
    "code": 30034,
    "address": "세종특별자치시 조치원읍 대첩로 17, ()",
    "latitude": 36.59535185,
    "longitude": 127.2941479286552
  },
  {
    "No": 489,
    "name": "세종맑은약국",
    "type": "약국",
    "phone": "044-865-9905",
    "code": 30032,
    "address": "세종특별자치시 조치원읍 도원1로 16, 상가동 210호 (푸르지오1차)",
    "latitude": 36.59273215,
    "longitude": 127.2910194793323
  },
  {
    "No": 490,
    "name": "행복플러스약국",
    "type": "약국",
    "phone": "070-4107-1055",
    "code": 30036,
    "address": "세종특별자치시 조치원읍 허만석로 60, (조치원홈플러스 )",
    "latitude": 36.5863867,
    "longitude": 127.2977637515745
  },
  {
    "No": 491,
    "name": "하나로약국",
    "type": "약국",
    "phone": "044-863-2231",
    "code": 30031,
    "address": "세종특별자치시 조치원읍 도원2로 39, 39",
    "latitude": 36.593342,
    "longitude": 127.2911245
  },
  {
    "No": 492,
    "name": "민약국",
    "type": "약국",
    "phone": "044-275-4114",
    "code": 30075,
    "address": "세종특별자치시 부강면 부강2길 12, ()",
    "latitude": 36.5307612,
    "longitude": 127.3678167
  },
  {
    "No": 493,
    "name": "은사약국",
    "type": "약국",
    "phone": "044-275-9122",
    "code": 30075,
    "address": "세종특별자치시 부강면 시장길 26, ()",
    "latitude": 36.5269875,
    "longitude": 127.3695311
  },
  {
    "No": 494,
    "name": "아름약국",
    "type": "약국",
    "phone": "044-275-0527",
    "code": 30075,
    "address": "세종특별자치시 부강면 부촌길 28, 28",
    "latitude": 36.5308111,
    "longitude": 127.3662219
  },
  {
    "No": 495,
    "name": "부광약국",
    "type": "약국",
    "phone": "044-905-3010",
    "code": 30075,
    "address": "세종특별자치시 부강면 부강4길 5-1, ()",
    "latitude": 36.529356,
    "longitude": 127.3679664
  },
  {
    "No": 496,
    "name": "나라약국",
    "type": "약국",
    "phone": "044-275-0262",
    "code": 30076,
    "address": "세종특별자치시 부강면 부강로 35-1, ()",
    "latitude": 36.5286987,
    "longitude": 127.3664051
  },
  {
    "No": 497,
    "name": "건강약국",
    "type": "약국",
    "phone": "044-867-0862",
    "code": 30047,
    "address": "세종특별자치시 연서면 당산로 353, 353",
    "latitude": 36.5738118,
    "longitude": 127.291803
  },
  {
    "No": 498,
    "name": "허브약국",
    "type": "약국",
    "phone": "044-867-9685",
    "code": 30092,
    "address": "세종특별자치시 해밀3로 51, 스카이허브 101,102호 (해밀동)",
    "latitude": 36.5290799,
    "longitude": 127.2650042502095
  },
  {
    "No": 499,
    "name": "메디컬드림약국",
    "type": "약국",
    "phone": "044-715-7680",
    "code": 30092,
    "address": "세종특별자치시 해밀3로 43, 스카이드림 101,102호 (해밀동)",
    "latitude": 36.52853145,
    "longitude": 127.264484780775
  },
  {
    "No": 500,
    "name": "새나루약국",
    "type": "약국",
    "phone": "",
    "code": 30141,
    "address": "세종특별자치시 남세종로 73, 111호 (집현동)",
    "latitude": 36.488364,
    "longitude": 127.3232654
  },
  {
    "No": 501,
    "name": "스타약국",
    "type": "약국",
    "phone": "044-866-6470",
    "code": 30146,
    "address": "세종특별자치시 한누리대로 1820, 왕관빌딩 107호 (반곡동)",
    "latitude": 36.4827528,
    "longitude": 127.2979671
  },
  {
    "No": 502,
    "name": "반곡중앙약국",
    "type": "약국",
    "phone": "044-865-7783",
    "code": 30146,
    "address": "세종특별자치시 한누리대로 1824, 1층 111호 (반곡동)",
    "latitude": 36.4827528,
    "longitude": 127.2979671
  },
  {
    "No": 503,
    "name": "반곡수약국",
    "type": "약국",
    "phone": "044-866-0511",
    "code": 30146,
    "address": "세종특별자치시 한누리대로 1828, 시드니블루 103호 (반곡동)",
    "latitude": 36.49808274999999,
    "longitude": 127.3115761442687
  },
  {
    "No": 504,
    "name": "세종바름약국",
    "type": "약국",
    "phone": "044-867-3258",
    "code": 30146,
    "address": "세종특별자치시 한누리대로 1844, 116호 (반곡동)",
    "latitude": 36.4827528,
    "longitude": 127.2979671
  },
  {
    "No": 505,
    "name": "가감 충대정문약국",
    "type": "약국",
    "phone": "044-868-2266",
    "code": 30098,
    "address": "세종특별자치시 다솜1로 220, 509동 103~104호 (도담동, 도램마을 5단지)",
    "latitude": 36.5131136,
    "longitude": 127.255555
  },
  {
    "No": 506,
    "name": "가까운세종충대약국",
    "type": "약국",
    "phone": "044-863-8201",
    "code": 30098,
    "address": "세종특별자치시 다솜1로 220, 101,102,201호 (도담동, 도램마을 5단지)",
    "latitude": 36.5131136,
    "longitude": 127.255555
  },
  {
    "No": 507,
    "name": "충대우회전약국",
    "type": "약국",
    "phone": "044-865-6543",
    "code": 30099,
    "address": "세종특별자치시 바른1길 3, (아름동)",
    "latitude": 36.5195231,
    "longitude": 127.2532169
  },
  {
    "No": 508,
    "name": "충대대형약국",
    "type": "약국",
    "phone": "044-867-0937",
    "code": 30099,
    "address": "세종특별자치시  달빛1로 309, 1층 (아름동)",
    "latitude": 36.5165662,
    "longitude": 127.2455899
  },
  {
    "No": 509,
    "name": "더건강한약국",
    "type": "약국",
    "phone": "044-415-1870",
    "code": 30147,
    "address": "세종특별자치시 한누리대로 1934, 메인타워 105~106호 (반곡동)",
    "latitude": 36.4917054,
    "longitude": 127.3035579
  },
  {
    "No": 510,
    "name": "대학로약국",
    "type": "약국",
    "phone": "044-862-4543",
    "code": 30100,
    "address": "세종특별자치시 한누리대로 589, 해피라움7 105호 (도담동)",
    "latitude": 36.4827528,
    "longitude": 127.2979671
  },
  {
    "No": 511,
    "name": "세종충대약국",
    "type": "약국",
    "phone": "044-864-1533",
    "code": 30100,
    "address": "세종특별자치시  도담서4길 3, 1층 (도담동)",
    "latitude": 36.517953,
    "longitude": 127.2553206
  },
  {
    "No": 512,
    "name": "세종행복약국",
    "type": "약국",
    "phone": "044-863-9985",
    "code": 30100,
    "address": "세종특별자치시 한누리대로 583, 1층 117호 (도담동)",
    "latitude": 36.4827528,
    "longitude": 127.2979671
  },
  {
    "No": 513,
    "name": "도담약국",
    "type": "약국",
    "phone": "044-865-7770",
    "code": 30098,
    "address": "세종특별자치시 보듬4로 9, 305호 (도담동, 도램마을11단지)",
    "latitude": 36.5130387,
    "longitude": 127.2625266
  },
  {
    "No": 514,
    "name": "참빛약국",
    "type": "약국",
    "phone": "044-866-5590",
    "code": 30100,
    "address": "세종특별자치시 보듬3로 8-20, 세종한신휴시티 120,121호 (도담동)",
    "latitude": 36.5115136,
    "longitude": 127.2540775
  },
  {
    "No": 515,
    "name": "충대십자약국",
    "type": "약국",
    "phone": "044-555-0263",
    "code": 30100,
    "address": "세종특별자치시 다솜1로 200, 408동 103호,104호 (도담동, 도램마을 4단지)",
    "latitude": 36.5131136,
    "longitude": 127.255555
  },
  {
    "No": 516,
    "name": "라온약국",
    "type": "약국",
    "phone": "044-863-7714",
    "code": 30100,
    "address": "세종특별자치시 보듬3로 8-12, 101-1호 (도담동, 라온프라이빗시티1상가)",
    "latitude": 36.5115136,
    "longitude": 127.2540775
  },
  {
    "No": 517,
    "name": "예쁜약국",
    "type": "약국",
    "phone": "044-903-1472",
    "code": 30147,
    "address": "세종특별자치시 한누리대로 1958, 법조타운A 1층 112호 (소담동)",
    "latitude": 36.4827528,
    "longitude": 127.2979671
  },
  {
    "No": 518,
    "name": "도램약국",
    "type": "약국",
    "phone": "044-868-1939",
    "code": 30100,
    "address": "세종특별자치시 보듬3로 6, 211호 (도담동, 라온프라이빗시티2상가)",
    "latitude": 36.512805,
    "longitude": 127.2588921
  },
  {
    "No": 519,
    "name": "우리약국",
    "type": "약국",
    "phone": "044-868-5851",
    "code": 30100,
    "address": "세종특별자치시 보듬3로 6, 204-1호 (도담동, 라온프라이빗시티2)",
    "latitude": 36.512805,
    "longitude": 127.2588921
  },
  {
    "No": 520,
    "name": "비타민약국",
    "type": "약국",
    "phone": "044-865-8838",
    "code": 30103,
    "address": "세종특별자치시 절재로 194, 104호 (어진동, 세종드림)",
    "latitude": 36.5085703,
    "longitude": 127.2614127
  },
  {
    "No": 521,
    "name": "드림약국",
    "type": "약국",
    "phone": "044-866-2242",
    "code": 30103,
    "address": "세종특별자치시 한누리대로 496, 101, 102호 (어진동, 세종리슈빌S)",
    "latitude": 36.4827528,
    "longitude": 127.2979671
  },
  {
    "No": 522,
    "name": "메디팜이화약국",
    "type": "약국",
    "phone": "044-866-6115",
    "code": 30102,
    "address": "세종특별자치시 한누리대로 499, 세종포스트빌딩 106호 (어진동)",
    "latitude": 36.5080745,
    "longitude": 127.2611599706632
  },
  {
    "No": 523,
    "name": "청암약국",
    "type": "약국",
    "phone": "044-863-8278",
    "code": 30103,
    "address": "세종특별자치시 한누리대로 492, 청암빌딩 (어진동)",
    "latitude": 36.4827528,
    "longitude": 127.2979671
  },
  {
    "No": 524,
    "name": "늘봄약국",
    "type": "약국",
    "phone": "044-863-1629",
    "code": 30151,
    "address": "세종특별자치시 한누리대로 2012, 코끼리타워 1층 116호 (소담동)",
    "latitude": 36.485292,
    "longitude": 127.2998924524885
  },
  {
    "No": 525,
    "name": "새샘약국",
    "type": "약국",
    "phone": "044-868-2368",
    "code": 30150,
    "address": "세종특별자치시 소담1로 16, 110호 (소담동, 지엘플렉스2)",
    "latitude": 36.48461575,
    "longitude": 127.3011689568054
  },
  {
    "No": 526,
    "name": "어진약국",
    "type": "약국",
    "phone": "044-863-9322",
    "code": 30102,
    "address": "세종특별자치시 절재로 154, 홈플러스 세종점 1층 X7,Y4호 (어진동)",
    "latitude": 36.50736904999999,
    "longitude": 127.2588282247777
  },
  {
    "No": 527,
    "name": "정담 한약국",
    "type": "약국",
    "phone": "044-866-1669",
    "code": 30062,
    "address": "세종특별자치시 마음안1로 137, 가락마을18단지 근린생활시설 (고운동)",
    "latitude": 36.5184071,
    "longitude": 127.2299309
  },
  {
    "No": 528,
    "name": "미소약국",
    "type": "약국",
    "phone": "044-862-9575",
    "code": 30151,
    "address": "세종특별자치시 한누리대로 2016, 1층 105호 (소담동, 타임빌딩)",
    "latitude": 36.4850434,
    "longitude": 127.29967635
  },
  {
    "No": 529,
    "name": "소담약국",
    "type": "약국",
    "phone": "044-865-7554",
    "code": 30151,
    "address": "세종특별자치시 한누리대로 2018, 사이언스타운 111호 (소담동)",
    "latitude": 36.484684,
    "longitude": 127.29959
  },
  {
    "No": 530,
    "name": "무지개약국",
    "type": "약국",
    "phone": "044-866-4360",
    "code": 30100,
    "address": "세종특별자치시 보듬3로 92, 307호 (아름동, 해피라움2)",
    "latitude": 36.5115136,
    "longitude": 127.2540775
  },
  {
    "No": 531,
    "name": "새빛약국",
    "type": "약국",
    "phone": "044-868-5402",
    "code": 30100,
    "address": "세종특별자치시 보듬3로 92, 402호 (아름동, 해피라움2상가)",
    "latitude": 36.5115136,
    "longitude": 127.2540775
  },
  {
    "No": 532,
    "name": "푸른약국",
    "type": "약국",
    "phone": "044-867-8673",
    "code": 30100,
    "address": "세종특별자치시 보듬3로 92, 4층 409-2호 (아름동, 해피라움2)",
    "latitude": 36.5115136,
    "longitude": 127.2540775
  },
  {
    "No": 533,
    "name": "두루약국",
    "type": "약국",
    "phone": "044-864-2688",
    "code": 30062,
    "address": "세종특별자치시  마음로 272, 105호 (고운동)",
    "latitude": 36.5021336,
    "longitude": 127.2409585
  },
  {
    "No": 534,
    "name": "본약국",
    "type": "약국",
    "phone": "070-7576-2339",
    "code": 30151,
    "address": "세종특별자치시 한누리대로 2022, 아이콤스타타워 103호 (소담동)",
    "latitude": 36.48454479999999,
    "longitude": 127.2992428972032
  },
  {
    "No": 535,
    "name": "균명한약국",
    "type": "약국",
    "phone": "044-868-6683",
    "code": 30100,
    "address": "세종특별자치시 보듬3로 100, 해피라움1 103호 (아름동)",
    "latitude": 36.51197165,
    "longitude": 127.2486843306488
  },
  {
    "No": 536,
    "name": "해피라움약국",
    "type": "약국",
    "phone": "044-868-3770",
    "code": 30100,
    "address": "세종특별자치시 보듬3로 100, 1동 117호 (아름동, 해피라움1)",
    "latitude": 36.51197165,
    "longitude": 127.2486843306488
  },
  {
    "No": 537,
    "name": "아름미듬약국",
    "type": "약국",
    "phone": "070-8880-6829",
    "code": 30100,
    "address": "세종특별자치시 보듬3로 91, 309호 (아름동, 해피라움4동)",
    "latitude": 36.5115136,
    "longitude": 127.2540775
  },
  {
    "No": 538,
    "name": "고운길온누리약국",
    "type": "약국",
    "phone": "070-7716-7577",
    "code": 30062,
    "address": "세종특별자치시 마음로 272-4, (고운동, 고운메디프라자)",
    "latitude": 36.5021336,
    "longitude": 127.2409585
  },
  {
    "No": 539,
    "name": "맑음약국",
    "type": "약국",
    "phone": "044-272-8898",
    "code": 30100,
    "address": "세종특별자치시 보듬3로 95, 해피라움3 102호 (아름동)",
    "latitude": 36.5115136,
    "longitude": 127.2540775
  },
  {
    "No": 540,
    "name": "아름솔약국",
    "type": "약국",
    "phone": "044-867-8756",
    "code": 30100,
    "address": "세종특별자치시 보듬3로 95, 해피라움3 3층 304-1호 (아름동)",
    "latitude": 36.5115136,
    "longitude": 127.2540775
  },
  {
    "No": 541,
    "name": "아름수약국",
    "type": "약국",
    "phone": "044-868-3380",
    "code": 30100,
    "address": "세종특별자치시 보듬3로 95, 408호 (아름동, 해피라움3)",
    "latitude": 36.5115136,
    "longitude": 127.2540775
  },
  {
    "No": 542,
    "name": "세종스마일약국",
    "type": "약국",
    "phone": "",
    "code": 30100,
    "address": "세종특별자치시 보듬3로 101, 108,109호 (아름동)",
    "latitude": 36.5113085,
    "longitude": 127.2488778
  },
  {
    "No": 543,
    "name": "고운우리약국",
    "type": "약국",
    "phone": "044-417-6141",
    "code": 30062,
    "address": "세종특별자치시 마음로 264, 고운프라자 107호 (고운동)",
    "latitude": 36.5021336,
    "longitude": 127.2409585
  },
  {
    "No": 544,
    "name": "아이맘약국",
    "type": "약국",
    "phone": "044-863-9242",
    "code": 30100,
    "address": "세종특별자치시 보듬3로 150, 아름 행복타워 101호 (아름동)",
    "latitude": 36.5115136,
    "longitude": 127.2540775
  },
  {
    "No": 545,
    "name": "아람약국",
    "type": "약국",
    "phone": "044-862-5265",
    "code": 30100,
    "address": "세종특별자치시 보듬3로 143, 대영프라자 102호 (아름동)",
    "latitude": 36.5115136,
    "longitude": 127.2540775
  },
  {
    "No": 546,
    "name": "탄탄온누리약국",
    "type": "약국",
    "phone": "044-868-1368",
    "code": 30100,
    "address": "세종특별자치시 보듬3로 158, 아름메디컬센터 1층 109호 (아름동)",
    "latitude": 36.5115136,
    "longitude": 127.2540775
  },
  {
    "No": 547,
    "name": "해오름약국",
    "type": "약국",
    "phone": "044-999-4761",
    "code": 30100,
    "address": "세종특별자치시 아름서1길 13-12, 세종 제이디빌딩 105호 (아름동)",
    "latitude": 36.5107411,
    "longitude": 127.2428981
  },
  {
    "No": 548,
    "name": "차와약국",
    "type": "약국",
    "phone": "044-863-3813",
    "code": 30064,
    "address": "세종특별자치시 달빛로 80, 3동 1층 304호 (종촌동, 가재마을 12단지)",
    "latitude": 36.5017286,
    "longitude": 127.2503313
  },
  {
    "No": 549,
    "name": "가재약국",
    "type": "약국",
    "phone": "044-867-3002",
    "code": 30064,
    "address": "세종특별자치시 도움3로 105-5, 105호 (종촌동, 종촌중앙프라자)",
    "latitude": 36.5036098,
    "longitude": 127.2558571
  },
  {
    "No": 550,
    "name": "나눔약국",
    "type": "약국",
    "phone": "044-867-2367",
    "code": 30064,
    "address": "세종특별자치시 도움3로 105-7, 메디케어빌딩 109호 (종촌동)",
    "latitude": 36.5036098,
    "longitude": 127.2558571
  },
  {
    "No": 551,
    "name": "메디팜우리들약국",
    "type": "약국",
    "phone": "044-865-7776",
    "code": 30064,
    "address": "세종특별자치시 달빛로 59, 1층 (종촌동, 호만빌딩)",
    "latitude": 36.5017286,
    "longitude": 127.2503313
  },
  {
    "No": 552,
    "name": "세종달빛약국",
    "type": "약국",
    "phone": "044-866-1675",
    "code": 30064,
    "address": "세종특별자치시 달빛로 47, 1층 104호 (종촌동)",
    "latitude": 36.5017286,
    "longitude": 127.2503313
  },
  {
    "No": 553,
    "name": "둥지약국",
    "type": "약국",
    "phone": "044-862-1246",
    "code": 30064,
    "address": "세종특별자치시 달빛로 45, 103호 (종촌동, 리버사이드빌딩)",
    "latitude": 36.5017286,
    "longitude": 127.2503313
  },
  {
    "No": 554,
    "name": "사랑채한약국",
    "type": "약국",
    "phone": "044-864-9275",
    "code": 30116,
    "address": "세종특별자치시 가름로 143, KT&G세종타워B 2층 11호 (어진동)",
    "latitude": 36.4994002,
    "longitude": 127.2563746387501
  },
  {
    "No": 555,
    "name": "데일리약국",
    "type": "약국",
    "phone": "044-862-5648",
    "code": 30064,
    "address": "세종특별자치시 도움1로 106, 5층 516호 (종촌동, 메가시티)",
    "latitude": 36.50265045,
    "longitude": 127.2479698505372
  },
  {
    "No": 556,
    "name": "메가약국",
    "type": "약국",
    "phone": "044-864-5648",
    "code": 30064,
    "address": "세종특별자치시 도움1로 106, 4층 415호 (종촌동, 메가시티)",
    "latitude": 36.50265045,
    "longitude": 127.2479698505372
  },
  {
    "No": 557,
    "name": "종촌탑약국",
    "type": "약국",
    "phone": "044-903-0067",
    "code": 30064,
    "address": "세종특별자치시 도움1로 106, 메가시티 6층 615-2호 (종촌동)",
    "latitude": 36.50265045,
    "longitude": 127.2479698505372
  },
  {
    "No": 558,
    "name": "도토약국",
    "type": "약국",
    "phone": "044-868-4709",
    "code": 30064,
    "address": "세종특별자치시 도움1로 108, 419호 (종촌동, 몰리브)",
    "latitude": 36.5024157,
    "longitude": 127.2471534
  },
  {
    "No": 559,
    "name": "지음약국",
    "type": "약국",
    "phone": "044-863-7557",
    "code": 30062,
    "address": "세종특별자치시 마음로 181, 1019동 B112호 (고운동, 가락마을10단지)",
    "latitude": 36.5021336,
    "longitude": 127.2409585
  },
  {
    "No": 560,
    "name": "경희당약국",
    "type": "약국",
    "phone": "044-863-3214",
    "code": 30064,
    "address": "세종특별자치시 도움3로 159, 상가동 103호 (종촌동, 가재마을3단지)",
    "latitude": 36.5036098,
    "longitude": 127.2558571
  },
  {
    "No": 561,
    "name": "병아리약국",
    "type": "약국",
    "phone": "044-863-8273",
    "code": 30150,
    "address": "세종특별자치시 한누리대로 2129, 스타힐타워2 105호 (보람동)",
    "latitude": 36.4785931,
    "longitude": 127.2897670381195
  },
  {
    "No": 562,
    "name": "뱅크약국",
    "type": "약국",
    "phone": "070-7758-3124",
    "code": 30121,
    "address": "세종특별자치시 한누리대로 350, 뱅크빌딩 1층 110호 (어진동)",
    "latitude": 36.4827528,
    "longitude": 127.2979671
  },
  {
    "No": 563,
    "name": "서울약국",
    "type": "약국",
    "phone": "044-863-8871",
    "code": 30150,
    "address": "세종특별자치시 남세종로 450, 보람빌딩 104호 (보람동)",
    "latitude": 36.47738074999999,
    "longitude": 127.29012775
  },
  {
    "No": 564,
    "name": "세종시티약국",
    "type": "약국",
    "phone": "044-905-1151",
    "code": 30150,
    "address": "세종특별자치시 한누리대로 2143, 금강시티타워 1층 105호 (보람동)",
    "latitude": 36.47806755,
    "longitude": 127.288434543927
  },
  {
    "No": 565,
    "name": "보람약국",
    "type": "약국",
    "phone": "070-7799-6423",
    "code": 30150,
    "address": "세종특별자치시 남세종로 454, 강남제일타워 102호 (보람동)",
    "latitude": 36.47720815,
    "longitude": 127.289712
  },
  {
    "No": 566,
    "name": "쓰담약국",
    "type": "약국",
    "phone": "044-864-9069",
    "code": 30150,
    "address": "세종특별자치시 한누리대로 2149, 엔젤타워 (보람동)",
    "latitude": 36.4778127,
    "longitude": 127.287821092533
  },
  {
    "No": 567,
    "name": "메디팜큰사랑약국",
    "type": "약국",
    "phone": "044-864-7748",
    "code": 30150,
    "address": "세종특별자치시 남세종로 458, 110호 (보람동, 아리랑빌딩)",
    "latitude": 36.47701404999999,
    "longitude": 127.28925865
  },
  {
    "No": 568,
    "name": "더오케이약국",
    "type": "약국",
    "phone": "044-863-0600",
    "code": 30123,
    "address": "세종특별자치시 한누리대로 331, 1층 129호 (나성동, SR파크센텀)",
    "latitude": 36.493933,
    "longitude": 127.2558373966887
  },
  {
    "No": 569,
    "name": "넘버원약국",
    "type": "약국",
    "phone": "044-865-0330",
    "code": 30128,
    "address": "세종특별자치시 국세청로 45, A동 120호 (나성동, 나릿재마을 3단지)",
    "latitude": 36.4891343,
    "longitude": 127.261109
  },
  {
    "No": 570,
    "name": "늘푸른약국",
    "type": "약국",
    "phone": "044-866-7289",
    "code": 30063,
    "address": "세종특별자치시 고운서길 19, 세종 스마트큐브Ⅰ (고운동)",
    "latitude": 36.5050328,
    "longitude": 127.234761
  },
  {
    "No": 571,
    "name": "153약국",
    "type": "약국",
    "phone": "044-864-1531",
    "code": 30063,
    "address": "세종특별자치시 마음로 78, 세종 스마트큐브Ⅱ 2층 205호 (고운동)",
    "latitude": 36.5021336,
    "longitude": 127.2409585
  },
  {
    "No": 572,
    "name": "코끼리약국",
    "type": "약국",
    "phone": "044-862-7819",
    "code": 30063,
    "address": "세종특별자치시 마음로 74, 104호 (고운동, 그랜드프라자)",
    "latitude": 36.5021336,
    "longitude": 127.2409585
  },
  {
    "No": 573,
    "name": "참고운약국",
    "type": "약국",
    "phone": "044-998-2463",
    "code": 30063,
    "address": "세종특별자치시 마음로 70, 1층 104호 (고운동, 에셀프라자)",
    "latitude": 36.5021336,
    "longitude": 127.2409585
  },
  {
    "No": 574,
    "name": "명지약국",
    "type": "약국",
    "phone": "044-862-7567",
    "code": 30123,
    "address": "세종특별자치시 다정중앙로 58, 다정메디프라자 108호 (다정동)",
    "latitude": 36.4957331,
    "longitude": 127.249169
  },
  {
    "No": 575,
    "name": "가온약국",
    "type": "약국",
    "phone": "044-862-8229",
    "code": 30124,
    "address": "세종특별자치시 다정중앙로 57, 다정센타프라자 (다정동)",
    "latitude": 36.499529,
    "longitude": 127.2493393
  },
  {
    "No": 576,
    "name": "인생약국",
    "type": "약국",
    "phone": "044-864-3713",
    "code": 30128,
    "address": "세종특별자치시 나성북로 30, 퍼스트원 542호 (나성동)",
    "latitude": 36.4901699,
    "longitude": 127.2628923
  },
  {
    "No": 577,
    "name": "세종코코약국",
    "type": "약국",
    "phone": "044-862-9155",
    "code": 30123,
    "address": "세종특별자치시 다정중앙로 52, 페스티발2 1층 107호 (다정동)",
    "latitude": 36.4951448,
    "longitude": 127.249118
  },
  {
    "No": 578,
    "name": "세종현약국",
    "type": "약국",
    "phone": "044-866-5991",
    "code": 30128,
    "address": "세종특별자치시 나성북로 15, MVG 114호 (나성동)",
    "latitude": 36.48972235,
    "longitude": 127.2583912186527
  },
  {
    "No": 579,
    "name": "세종 권약국",
    "type": "약국",
    "phone": "044-868-5850",
    "code": 30123,
    "address": "세종특별자치시 가온로 8, 104호 (다정동)",
    "latitude": 36.4917398,
    "longitude": 127.2542162
  },
  {
    "No": 580,
    "name": "한사랑약국",
    "type": "약국",
    "phone": "044-865-7003",
    "code": 30124,
    "address": "세종특별자치시 다정중앙로 51, 더다정빌딩 103-104호 (다정동)",
    "latitude": 36.499529,
    "longitude": 127.2493393
  },
  {
    "No": 581,
    "name": "기린약국",
    "type": "약국",
    "phone": "044-868-7756",
    "code": 30128,
    "address": "세종특별자치시 나성로 96, 더센트럴 426호 (나성동)",
    "latitude": 36.4912613,
    "longitude": 127.2592172
  },
  {
    "No": 582,
    "name": "더센트럴5층약국",
    "type": "약국",
    "phone": "044-866-9655",
    "code": 30128,
    "address": "세종특별자치시 나성로 96, 더센트럴 542호 (나성동)",
    "latitude": 36.4912613,
    "longitude": 127.2592172
  },
  {
    "No": 583,
    "name": "다정365약국",
    "type": "약국",
    "phone": "044-866-6423",
    "code": 30123,
    "address": "세종특별자치시 다정중앙로 40, 리치타워 103호 (다정동)",
    "latitude": 36.499529,
    "longitude": 127.2493393
  },
  {
    "No": 584,
    "name": "다정온누리약국",
    "type": "약국",
    "phone": "044-868-3383",
    "code": 30124,
    "address": "세종특별자치시 다정중앙로 45, 다정프라자 1층 110호 (다정동)",
    "latitude": 36.499529,
    "longitude": 127.2493393
  },
  {
    "No": 585,
    "name": "올약국",
    "type": "약국",
    "phone": "044-864-0170",
    "code": 30124,
    "address": "세종특별자치시 다정북로 109, 상가동 1층 109호 (다정동, 가온마을3단지)",
    "latitude": 36.4964277,
    "longitude": 127.2423938
  },
  {
    "No": 586,
    "name": "세종다온약국",
    "type": "약국",
    "phone": "044-866-0600",
    "code": 30127,
    "address": "세종특별자치시 한누리대로 275, 형성프라자 112호 (나성동)",
    "latitude": 36.48880674999999,
    "longitude": 127.2563853978388
  },
  {
    "No": 587,
    "name": "더세종약국",
    "type": "약국",
    "phone": "044-865-0205",
    "code": 30127,
    "address": "세종특별자치시 한누리대로 273, (나성동)",
    "latitude": 36.48850520000001,
    "longitude": 127.2564794440782
  },
  {
    "No": 588,
    "name": "아름다운 약국",
    "type": "약국",
    "phone": "044-864-7131",
    "code": 30127,
    "address": "세종특별자치시 한누리대로 265, 명동프라자 113호 (나성동)",
    "latitude": 36.48783305,
    "longitude": 127.2567505
  },
  {
    "No": 589,
    "name": "하늘약국",
    "type": "약국",
    "phone": "044-868-5482",
    "code": 30127,
    "address": "세종특별자치시 한누리대로 253, 에스빌딩 112호 (나성동)",
    "latitude": 36.4868387,
    "longitude": 127.257230161524
  },
  {
    "No": 590,
    "name": "스마일온누리약국",
    "type": "약국",
    "phone": "044-867-1778",
    "code": 30127,
    "address": "세종특별자치시 한누리대로 249, 에스제이타워 105호 (나성동)",
    "latitude": 36.48645985,
    "longitude": 127.2574341542243
  },
  {
    "No": 591,
    "name": "우리두리약국",
    "type": "약국",
    "phone": "044-864-1422",
    "code": 30153,
    "address": "세종특별자치시 한누리대로 2257, 판타지타워 104호 (대평동)",
    "latitude": 36.4827528,
    "longitude": 127.2979671
  },
  {
    "No": 592,
    "name": "새롬가온약국",
    "type": "약국",
    "phone": "044-863-8712",
    "code": 30127,
    "address": "세종특별자치시 새롬중앙로 62-15, 해피라움W 3층 302호 (새롬동)",
    "latitude": 36.48671375000001,
    "longitude": 127.2515247078649
  },
  {
    "No": 593,
    "name": "새롬정약국",
    "type": "약국",
    "phone": "044-715-5502",
    "code": 30127,
    "address": "세종특별자치시 새롬중앙로 62-15, 해피라움W 402호 (새롬동)",
    "latitude": 36.48671375000001,
    "longitude": 127.2515247078649
  },
  {
    "No": 594,
    "name": "영광약국",
    "type": "약국",
    "phone": "044-866-8811",
    "code": 30127,
    "address": "세종특별자치시 새롬중앙로 64, 세종영광프라자 1층 (새롬동)",
    "latitude": 36.4866335,
    "longitude": 127.251061135162
  },
  {
    "No": 595,
    "name": "365열린약국",
    "type": "약국",
    "phone": "044-555-3658",
    "code": 30126,
    "address": "세종특별자치시 새롬중앙로 67, 오렌지빌딩 105호 (새롬동)",
    "latitude": 36.4868552,
    "longitude": 127.2501665
  },
  {
    "No": 596,
    "name": "한아름약국",
    "type": "약국",
    "phone": "044-867-5399",
    "code": 30130,
    "address": "세종특별자치시  한누리대로 169, 116호 (나성동)",
    "latitude": 36.4802285,
    "longitude": 127.2618513040982
  },
  {
    "No": 597,
    "name": "메디팜세종약국",
    "type": "약국",
    "phone": "044-862-6229",
    "code": 30130,
    "address": "세종특별자치시 한누리대로 165, 104호 (나성동, 세종메디피아)",
    "latitude": 36.47996105,
    "longitude": 127.2620420738605
  },
  {
    "No": 598,
    "name": "NK드림약국",
    "type": "약국",
    "phone": "044-867-4408",
    "code": 30130,
    "address": "세종특별자치시 한누리대로 161, 세종시 NK리움힐 상가 115,116호 (나성동)",
    "latitude": 36.4796357,
    "longitude": 127.2622727909242
  },
  {
    "No": 599,
    "name": "새롬솔약국",
    "type": "약국",
    "phone": "044-862-0193",
    "code": 30126,
    "address": "세종특별자치시 새롬중앙로 59, 새롬빌딩 105호 (새롬동)",
    "latitude": 36.4861545,
    "longitude": 127.2503188
  },
  {
    "No": 600,
    "name": "사랑온누리약국",
    "type": "약국",
    "phone": "044-862-7533",
    "code": 30130,
    "address": "세종특별자치시 한누리대로 157, 106호 (나성동, 금강프라자)",
    "latitude": 36.4793241,
    "longitude": 127.2625909582124
  },
  {
    "No": 601,
    "name": "효약국",
    "type": "약국",
    "phone": "044-863-0728",
    "code": 30127,
    "address": "세종특별자치시 새롬중앙로 34, 크리스마스빌딩 103호 (새롬동)",
    "latitude": 36.4846089,
    "longitude": 127.2525505105848
  },
  {
    "No": 602,
    "name": "엘약국",
    "type": "약국",
    "phone": "044-864-7573",
    "code": 30126,
    "address": "세종특별자치시 새롬중앙로 55, 103호 (새롬동, 행운빌딩)",
    "latitude": 36.48580635,
    "longitude": 127.2504335420053
  },
  {
    "No": 603,
    "name": "세종태평양약국",
    "type": "약국",
    "phone": "044-865-0309",
    "code": 30153,
    "address": "세종특별자치시 한누리대로 2275, 알파메디컬센터 1층 106호,107호 (대평동)",
    "latitude": 36.4827528,
    "longitude": 127.2979671
  },
  {
    "No": 604,
    "name": "서약국",
    "type": "약국",
    "phone": "044-866-0920",
    "code": 30083,
    "address": "세종특별자치시 금남면 용포로 116, ()",
    "latitude": 36.46887585,
    "longitude": 127.2811933022035
  },
  {
    "No": 605,
    "name": "건강한약국",
    "type": "약국",
    "phone": "044-867-4678",
    "code": 30130,
    "address": "세종특별자치시 노을3로 29, 102호 (한솔동, 세종프라자)",
    "latitude": 36.4804872,
    "longitude": 127.2592106576655
  },
  {
    "No": 606,
    "name": "새롬튼튼약국",
    "type": "약국",
    "phone": "044-863-5875",
    "code": 30126,
    "address": "세종특별자치시 새롬중앙로 47, 404호 (새롬동, 세움빌딩)",
    "latitude": 36.48501705,
    "longitude": 127.2508150467048
  },
  {
    "No": 607,
    "name": "한누리약국",
    "type": "약국",
    "phone": "044-868-4536",
    "code": 30153,
    "address": "세종특별자치시 한누리대로 2281, SM메디컬센터 121,122호 (대평동)",
    "latitude": 36.4827528,
    "longitude": 127.2979671
  },
  {
    "No": 608,
    "name": "새뜸365약국",
    "type": "약국",
    "phone": "044-867-0365",
    "code": 30126,
    "address": "세종특별자치시 새롬중앙로 41, 무지개타워 110호 (새롬동)",
    "latitude": 36.48456015,
    "longitude": 127.2512229526847
  },
  {
    "No": 609,
    "name": "대평약국",
    "type": "약국",
    "phone": "044-866-2026",
    "code": 30083,
    "address": "세종특별자치시 금남면 용포로 113, ()",
    "latitude": 36.4670428,
    "longitude": 127.2805922
  },
  {
    "No": 610,
    "name": "한솔약국",
    "type": "약국",
    "phone": "044-868-3699",
    "code": 30130,
    "address": "세종특별자치시 누리로 106, 송원프라자 107호 (한솔동)",
    "latitude": 36.47984035,
    "longitude": 127.2526252208743
  },
  {
    "No": 611,
    "name": "강약국",
    "type": "약국",
    "phone": "044-866-7018",
    "code": 30083,
    "address": "세종특별자치시 금남면 용포로 53, ()",
    "latitude": 36.4670428,
    "longitude": 127.2805922
  },
  {
    "No": 612,
    "name": "장기약국",
    "type": "약국",
    "phone": "044-857-1700",
    "code": 30053,
    "address": "세종특별자치시 장군면 장척로 405-2, (장군면)",
    "latitude": 36.5000579,
    "longitude": 127.2094118
  },
  {
    "No": 613,
    "name": "햇살약국",
    "type": "약국",
    "phone": "044-881-9543",
    "code": 30053,
    "address": "세종특별자치시 장군면 장척로 401, ()",
    "latitude": 36.5001948,
    "longitude": 127.2160389
  },
  {
    "No": 614,
    "name": "세종이마트믿음약국",
    "type": "약국",
    "phone": "044-866-4056",
    "code": 30065,
    "address": "세종특별자치시 금송로 687, 3층 (가람동, 이마트 세종점)",
    "latitude": 36.4708801,
    "longitude": 127.2510034803595
  },
  {
    "No": 615,
    "name": "메디팜365약국",
    "type": "약국",
    "phone": "044-866-6992",
    "code": 30152,
    "address": "세종특별자치시 한누리대로 2264, 105-106호 (대평동, 씨티오브드림)",
    "latitude": 36.47300315,
    "longitude": 127.2769025448234
  },
  {
    "No": 616,
    "name": "세종사랑약국",
    "type": "약국",
    "phone": "",
    "code": 30127,
    "address": "세종특별자치시 한누리대로 245, 에스알파크원 119호 (나성동)",
    "latitude": 36.4861209,
    "longitude": 127.257643444024
  }
]